[{"slug":"aalborg","name":"Aalborg","country":"Denmark","timezone":"Europe/Copenhagen","lat":57.05,"lng":9.9167},{"slug":"abeche","name":"Abéché","country":"Chad","timezone":"Africa/Ndjamena","lat":13.8331,"lng":20.8347},{"slug":"abidjan","name":"Abidjan","country":"Ivory Coast","timezone":"Africa/Abidjan","lat":5.3167,"lng":-4.0333},{"slug":"abobo","name":"Abobo","country":"Ivory Coast","timezone":"Africa/Abidjan","lat":5.3167,"lng":-4.0333},{"slug":"abomey-calavi","name":"Abomey-Calavi","country":"Benin","timezone":"Africa/Porto-Novo","lat":6.4486,"lng":2.3556},{"slug":"abu-dhabi","name":"Abu Dhabi","country":"United Arab Emirates","timezone":"Asia/Dubai","lat":24.4667,"lng":54.3667},{"slug":"abuja","name":"Abuja","country":"Nigeria","timezone":"Africa/Lagos","lat":9.0667,"lng":7.4833},{"slug":"accra","name":"Accra","country":"Ghana","timezone":"Africa/Accra","lat":5.55,"lng":-0.2},{"slug":"adak","name":"Adak","country":"United States","timezone":"America/Adak","lat":51.88,"lng":-176.66},{"slug":"adamstown","name":"Adamstown","country":"Pitcairn","timezone":"Pacific/Pitcairn","lat":-25.0667,"lng":-130.0833},{"slug":"addis-ababa","name":"Addis Ababa","country":"Ethiopia","timezone":"Africa/Addis_Ababa","lat":9.03,"lng":38.74},{"slug":"adelaide","name":"Adelaide","country":"Australia","timezone":"Australia/Adelaide","lat":-34.9275,"lng":138.6},{"slug":"adelaide-hills","name":"Adelaide Hills","country":"Australia","timezone":"Australia/Adelaide","lat":-34.9275,"lng":138.6},{"slug":"aden","name":"Aden","country":"Yemen","timezone":"Asia/Aden","lat":12.8,"lng":45.0333},{"slug":"aktobe","name":"Aktobe","country":"Kazakhstan","timezone":"Asia/Almaty","lat":43.2775,"lng":76.8958},{"slug":"al-ahmadi","name":"Al Aḩmadī","country":"Kuwait","timezone":"Asia/Kuwait","lat":29.0769,"lng":48.0838},{"slug":"al-ain-city","name":"Al Ain City","country":"United Arab Emirates","timezone":"Asia/Dubai","lat":25.2631,"lng":55.2972},{"slug":"al-basrah-al-qadimah","name":"Al Başrah al Qadīmah","country":"Iraq","timezone":"Asia/Baghdad","lat":33.3153,"lng":44.3661},{"slug":"al-mansurah","name":"Al Manşūrah","country":"Qatar","timezone":"Asia/Qatar","lat":31.05,"lng":31.3833},{"slug":"al-matar-al-atiq","name":"Al Maţār al ‘Atīq","country":"Qatar","timezone":"Asia/Qatar","lat":25.2867,"lng":51.5333},{"slug":"al-mawsil-al-jadidah","name":"Al Mawşil al Jadīdah","country":"Iraq","timezone":"Asia/Baghdad","lat":33.3153,"lng":44.3661},{"slug":"al-muharraq","name":"Al Muharraq","country":"Bahrain","timezone":"Asia/Bahrain","lat":26.25,"lng":50.6167},{"slug":"alajuela","name":"Alajuela","country":"Costa Rica","timezone":"America/Costa_Rica","lat":10.164,"lng":-84.2645},{"slug":"albuquerque","name":"Albuquerque","country":"United States","timezone":"America/Denver","lat":35.1054,"lng":-106.6465},{"slug":"aleppo","name":"Aleppo","country":"Syria","timezone":"Asia/Damascus","lat":36.2,"lng":37.16},{"slug":"alexandria","name":"Alexandria","country":"Egypt","timezone":"Africa/Cairo","lat":31.1975,"lng":29.8925},{"slug":"algiers","name":"Algiers","country":"Algeria","timezone":"Africa/Algiers","lat":36.7539,"lng":3.0589},{"slug":"ali-sabih","name":"Ali Sabih","country":"Djibouti","timezone":"Africa/Djibouti","lat":11.5883,"lng":43.145},{"slug":"alice-springs","name":"Alice Springs","country":"Australia","timezone":"Australia/Darwin","lat":-23.7,"lng":133.8667},{"slug":"almaty","name":"Almaty","country":"Kazakhstan","timezone":"Asia/Almaty","lat":43.2775,"lng":76.8958},{"slug":"alofi","name":"Alofi","country":"Niue","timezone":"Pacific/Niue","lat":-19.056,"lng":-169.921},{"slug":"altai","name":"Altai","country":"Mongolia","timezone":"Asia/Hovd","lat":49.9833,"lng":92.0667},{"slug":"amadora","name":"Amadora","country":"Portugal","timezone":"Europe/Lisbon","lat":38.7333,"lng":-9.2333},{"slug":"ambon","name":"Ambon","country":"Indonesia","timezone":"Asia/Jayapura","lat":-3.7,"lng":128.1667},{"slug":"amman","name":"Amman","country":"Jordan","timezone":"Asia/Amman","lat":31.9497,"lng":35.9328},{"slug":"amsterdam","name":"Amsterdam","country":"The Netherlands","timezone":"Europe/Amsterdam","lat":52.3728,"lng":4.8936},{"slug":"anadyr","name":"Anadyr","country":"Russia","timezone":"Asia/Kamchatka","lat":64.7333,"lng":177.5167},{"slug":"anchorage","name":"Anchorage","country":"United States","timezone":"America/Anchorage","lat":61.1508,"lng":-149.1091},{"slug":"andijon","name":"Andijon","country":"Uzbekistan","timezone":"Asia/Tashkent","lat":40.7833,"lng":72.3333},{"slug":"andorra-la-vella","name":"Andorra la Vella","country":"Andorra","timezone":"Europe/Andorra","lat":42.5,"lng":1.5},{"slug":"angarsk","name":"Angarsk","country":"Russia","timezone":"Asia/Irkutsk","lat":52.55,"lng":103.9},{"slug":"ankara","name":"Ankara","country":"Turkey","timezone":"Europe/Istanbul","lat":39.93,"lng":32.85},{"slug":"annaba","name":"Annaba","country":"Algeria","timezone":"Africa/Algiers","lat":36.9,"lng":7.7667},{"slug":"antananarivo","name":"Antananarivo","country":"Madagascar","timezone":"Indian/Antananarivo","lat":-18.9333,"lng":47.5167},{"slug":"antofagasta","name":"Antofagasta","country":"Chile","timezone":"America/Santiago","lat":-23.65,"lng":-70.4},{"slug":"antsirabe","name":"Antsirabe","country":"Madagascar","timezone":"Indian/Antananarivo","lat":-19.8667,"lng":47.0333},{"slug":"antwerpen","name":"Antwerpen","country":"Belgium","timezone":"Europe/Brussels","lat":51.2178,"lng":4.4003},{"slug":"apia","name":"Apia","country":"Samoa","timezone":"Pacific/Apia","lat":-13.8333,"lng":-171.75},{"slug":"aqsu","name":"Aqsu","country":"China","timezone":"Asia/Urumqi","lat":52.0333,"lng":76.9167},{"slug":"ar-rayyan","name":"Ar Rayyān","country":"Qatar","timezone":"Asia/Qatar","lat":25.25,"lng":51.4},{"slug":"ar-rifa","name":"Ar Rifā‘","country":"Bahrain","timezone":"Asia/Bahrain","lat":26.25,"lng":50.6167},{"slug":"arawa","name":"Arawa","country":"Papua New Guinea","timezone":"Pacific/Bougainville","lat":-6.225,"lng":155.5667},{"slug":"arequipa","name":"Arequipa","country":"Peru","timezone":"America/Lima","lat":-16.4,"lng":-71.5333},{"slug":"arhus","name":"Århus","country":"Denmark","timezone":"Europe/Copenhagen","lat":56.1572,"lng":10.2107},{"slug":"as-salimiyah","name":"As Sālimīyah","country":"Kuwait","timezone":"Asia/Kuwait","lat":29.0769,"lng":48.0838},{"slug":"ashgabat","name":"Ashgabat","country":"Turkmenistan","timezone":"Asia/Ashgabat","lat":37.95,"lng":58.3833},{"slug":"asmara","name":"Asmara","country":"Eritrea","timezone":"Africa/Asmara","lat":15.3228,"lng":38.925},{"slug":"assomada","name":"Assomada","country":"Cabo Verde","timezone":"Atlantic/Cape_Verde","lat":15.096,"lng":-23.667},{"slug":"asuncion","name":"Asunción","country":"Paraguay","timezone":"America/Asuncion","lat":-25.3,"lng":-57.6333},{"slug":"atakpame","name":"Atakpamé","country":"Togo","timezone":"Africa/Lome","lat":7.5269,"lng":1.1267},{"slug":"athens","name":"Athens","country":"Greece","timezone":"Europe/Athens","lat":37.9842,"lng":23.7281},{"slug":"atikokan","name":"Atikokan","country":"Canada","timezone":"America/Atikokan","lat":48.75,"lng":-91.62},{"slug":"auckland","name":"Auckland","country":"New Zealand","timezone":"Pacific/Auckland","lat":-36.8406,"lng":174.74},{"slug":"avarua","name":"Avarua","country":"Cook Islands","timezone":"Pacific/Rarotonga","lat":-21.207,"lng":-159.771},{"slug":"bafata","name":"Bafatá","country":"Guinea-Bissau","timezone":"Africa/Bissau","lat":12.1719,"lng":-14.6575},{"slug":"bafoussam","name":"Bafoussam","country":"Cameroon","timezone":"Africa/Douala","lat":5.4667,"lng":10.4167},{"slug":"baghdad","name":"Baghdad","country":"Iraq","timezone":"Asia/Baghdad","lat":33.3153,"lng":44.3661},{"slug":"baie-mahault","name":"Baie-Mahault","country":"Guadeloupe","timezone":"America/Guadeloupe","lat":16.27,"lng":-61.59},{"slug":"baku","name":"Baku","country":"Azerbaijan","timezone":"Asia/Baku","lat":40.3667,"lng":49.8352},{"slug":"balikpapan","name":"Balikpapan","country":"Indonesia","timezone":"Asia/Makassar","lat":-1.2768,"lng":116.8277},{"slug":"balti","name":"Bălţi","country":"Moldova","timezone":"Europe/Chisinau","lat":47.7667,"lng":27.9167},{"slug":"baltiysk","name":"Baltiysk","country":"Russia","timezone":"Europe/Kaliningrad","lat":54.65,"lng":19.9167},{"slug":"bamako","name":"Bamako","country":"Mali","timezone":"Africa/Bamako","lat":12.6458,"lng":-7.9922},{"slug":"bamenda","name":"Bamenda","country":"Cameroon","timezone":"Africa/Douala","lat":5.9614,"lng":10.1517},{"slug":"bandar-seri-begawan","name":"Bandar Seri Begawan","country":"Brunei","timezone":"Asia/Brunei","lat":4.8903,"lng":114.9422},{"slug":"bandariba","name":"Bandariba","country":"Curacao","timezone":"America/Curacao","lat":12.108,"lng":-68.935},{"slug":"bandung","name":"Bandung","country":"Indonesia","timezone":"Asia/Jakarta","lat":-6.912,"lng":107.6097},{"slug":"bangkok","name":"Bangkok","country":"Thailand","timezone":"Asia/Bangkok","lat":13.7525,"lng":100.4942},{"slug":"bangui","name":"Bangui","country":"Central African Republic","timezone":"Africa/Bangui","lat":4.3733,"lng":18.5628},{"slug":"banja-luka","name":"Banja Luka","country":"Bosnia and Herzegovina","timezone":"Europe/Sarajevo","lat":44.7725,"lng":17.1925},{"slug":"barcelona","name":"Barcelona","country":"Spain","timezone":"Europe/Madrid","lat":41.3825,"lng":2.1769},{"slug":"barnaul","name":"Barnaul","country":"Russia","timezone":"Asia/Novosibirsk","lat":53.3333,"lng":83.75},{"slug":"barquisimeto","name":"Barquisimeto","country":"Venezuela","timezone":"America/Caracas","lat":10.0678,"lng":-69.3467},{"slug":"barranquilla","name":"Barranquilla","country":"Colombia","timezone":"America/Bogota","lat":10.9833,"lng":-74.8019},{"slug":"basel","name":"Basel","country":"Switzerland","timezone":"Europe/Zurich","lat":47.5547,"lng":7.5906},{"slug":"basseterre","name":"Basseterre","country":"Saint Kitts and Nevis","timezone":"America/St_Kitts","lat":17.3,"lng":-62.7333},{"slug":"bata","name":"Bata","country":"Equatorial Guinea","timezone":"Africa/Malabo","lat":1.865,"lng":9.77},{"slug":"battambang","name":"Battambang","country":"Cambodia","timezone":"Asia/Phnom_Penh","lat":13.1,"lng":103.2},{"slug":"batumi","name":"Batumi","country":"Georgia","timezone":"Asia/Tbilisi","lat":41.6458,"lng":41.6417},{"slug":"bawshar","name":"Bawshar","country":"Oman","timezone":"Asia/Muscat","lat":23.5333,"lng":58.3833},{"slug":"bayamon","name":"Bayamón","country":"Puerto Rico","timezone":"America/Puerto_Rico","lat":18.3794,"lng":-66.1635},{"slug":"beau-bassin-rose-hill","name":"Beau Bassin-Rose Hill","country":"Mauritius","timezone":"Indian/Mauritius","lat":-20.1644,"lng":57.5042},{"slug":"bedok-new-town","name":"Bedok New Town","country":"Singapore","timezone":"Asia/Singapore","lat":1.3,"lng":103.8},{"slug":"begoua","name":"Bégoua","country":"Central African Republic","timezone":"Africa/Bangui","lat":4.3733,"lng":18.5628},{"slug":"beijing","name":"Beijing","country":"China","timezone":"Asia/Shanghai","lat":39.904,"lng":116.4075},{"slug":"beira","name":"Beira","country":"Mozambique","timezone":"Africa/Maputo","lat":-19.8333,"lng":34.85},{"slug":"beirut","name":"Beirut","country":"Lebanon","timezone":"Asia/Beirut","lat":33.8869,"lng":35.5131},{"slug":"bekasi","name":"Bekasi","country":"Indonesia","timezone":"Asia/Jakarta","lat":-6.2349,"lng":106.9923},{"slug":"belgrade","name":"Belgrade","country":"Serbia","timezone":"Europe/Belgrade","lat":44.82,"lng":20.46},{"slug":"belize-city","name":"Belize City","country":"Belize","timezone":"America/Belize","lat":17.4986,"lng":-88.1886},{"slug":"belmopan","name":"Belmopan","country":"Belize","timezone":"America/Belize","lat":17.2514,"lng":-88.7669},{"slug":"belo-horizonte","name":"Belo Horizonte","country":"Brazil","timezone":"America/Sao_Paulo","lat":-19.9167,"lng":-43.9333},{"slug":"belogorsk","name":"Belogorsk","country":"Russia","timezone":"Asia/Chita","lat":50.9167,"lng":128.4667},{"slug":"bender","name":"Bender","country":"Moldova","timezone":"Europe/Chisinau","lat":46.8333,"lng":29.4833},{"slug":"bengaluru","name":"Bengaluru","country":"India","timezone":"Asia/Kolkata","lat":12.9789,"lng":77.5917},{"slug":"benghazi","name":"Benghazi","country":"Libya","timezone":"Africa/Tripoli","lat":32.1167,"lng":20.0667},{"slug":"benguela","name":"Benguela","country":"Angola","timezone":"Africa/Luanda","lat":-12.55,"lng":13.4167},{"slug":"berbera","name":"Berbera","country":"Somalia","timezone":"Africa/Mogadishu","lat":10.4356,"lng":45.0164},{"slug":"bergen","name":"Bergen","country":"Norway","timezone":"Europe/Oslo","lat":60.3894,"lng":5.33},{"slug":"berlin","name":"Berlin","country":"Germany","timezone":"Europe/Berlin","lat":52.52,"lng":13.405},{"slug":"bharatpur","name":"Bharatpur","country":"Nepal","timezone":"Asia/Kathmandu","lat":27.6833,"lng":84.4333},{"slug":"bien-hoa","name":"Biên Hòa","country":"Vietnam","timezone":"Asia/Ho_Chi_Minh","lat":10.95,"lng":106.8167},{"slug":"bimbo","name":"Bimbo","country":"Central African Republic","timezone":"Africa/Bangui","lat":4.3313,"lng":18.5163},{"slug":"birkirkara","name":"Birkirkara","country":"Malta","timezone":"Europe/Malta","lat":35.8967,"lng":14.4625},{"slug":"birmingham","name":"Birmingham","country":"United Kingdom","timezone":"Europe/London","lat":52.48,"lng":-1.9025},{"slug":"bishkek","name":"Bishkek","country":"Kyrgyzstan","timezone":"Asia/Bishkek","lat":42.8747,"lng":74.6122},{"slug":"bissau","name":"Bissau","country":"Guinea-Bissau","timezone":"Africa/Bissau","lat":11.85,"lng":-15.5667},{"slug":"bitola","name":"Bitola","country":"North Macedonia","timezone":"Europe/Skopje","lat":41.0319,"lng":21.3347},{"slug":"blagoveshchensk","name":"Blagoveshchensk","country":"Russia","timezone":"Asia/Chita","lat":50.2578,"lng":127.5364},{"slug":"blanc-sablon","name":"Blanc-Sablon","country":"Canada","timezone":"America/Blanc-Sablon","lat":51.42,"lng":-57.18},{"slug":"blantyre","name":"Blantyre","country":"Malawi","timezone":"Africa/Blantyre","lat":-15.7861,"lng":35.0058},{"slug":"blauwgrond","name":"Blauwgrond","country":"Suriname","timezone":"America/Paramaribo","lat":5.8522,"lng":-55.2039},{"slug":"bo","name":"Bo","country":"Sierra Leone","timezone":"Africa/Freetown","lat":7.9564,"lng":-11.74},{"slug":"bobo-dioulasso","name":"Bobo-Dioulasso","country":"Burkina Faso","timezone":"Africa/Ouagadougou","lat":11.1833,"lng":-4.2833},{"slug":"bogota","name":"Bogotá","country":"Colombia","timezone":"America/Bogota","lat":4.7111,"lng":-74.0722},{"slug":"borama","name":"Borama","country":"Somalia","timezone":"Africa/Mogadishu","lat":2.0392,"lng":45.3419},{"slug":"bouake","name":"Bouaké","country":"Ivory Coast","timezone":"Africa/Abidjan","lat":7.6833,"lng":-5.0167},{"slug":"boujdour","name":"Boujdour","country":"Western Sahara","timezone":"Africa/El_Aaiun","lat":27.1536,"lng":-13.2033},{"slug":"brades","name":"Brades","country":"Montserrat","timezone":"America/Montserrat","lat":16.7928,"lng":-62.2106},{"slug":"braga","name":"Braga","country":"Portugal","timezone":"Europe/Lisbon","lat":41.5503,"lng":-8.42},{"slug":"brandon","name":"Brandon","country":"Canada","timezone":"America/Winnipeg","lat":49.8483,"lng":-99.95},{"slug":"bratislava","name":"Bratislava","country":"Slovakia","timezone":"Europe/Bratislava","lat":48.1439,"lng":17.1097},{"slug":"bratsk","name":"Bratsk","country":"Russia","timezone":"Asia/Irkutsk","lat":56.1167,"lng":101.6},{"slug":"brazzaville","name":"Brazzaville","country":"Republic of the Congo","timezone":"Africa/Brazzaville","lat":-4.2694,"lng":15.2714},{"slug":"bridgetown","name":"Bridgetown","country":"Barbados","timezone":"America/Barbados","lat":13.0975,"lng":-59.6167},{"slug":"brikama","name":"Brikama","country":"Gambia","timezone":"Africa/Banjul","lat":13.2667,"lng":-16.65},{"slug":"brisbane","name":"Brisbane","country":"Australia","timezone":"Australia/Brisbane","lat":-27.4678,"lng":153.0281},{"slug":"brno","name":"Brno","country":"Czechia","timezone":"Europe/Prague","lat":49.1925,"lng":16.6083},{"slug":"brooklyn","name":"Brooklyn","country":"United States","timezone":"America/New_York","lat":40.6501,"lng":-73.9496},{"slug":"brussels","name":"Brussels","country":"Belgium","timezone":"Europe/Brussels","lat":50.8467,"lng":4.3525},{"slug":"buchanan","name":"Buchanan","country":"Liberia","timezone":"Africa/Monrovia","lat":5.8808,"lng":-10.0467},{"slug":"bucharest","name":"Bucharest","country":"Romania","timezone":"Europe/Bucharest","lat":44.4325,"lng":26.1039},{"slug":"budapest","name":"Budapest","country":"Hungary","timezone":"Europe/Budapest","lat":47.4925,"lng":19.0514},{"slug":"buenos-aires","name":"Buenos Aires","country":"Argentina","timezone":"America/Argentina/Buenos_Aires","lat":-34.5997,"lng":-58.3819},{"slug":"bujumbura","name":"Bujumbura","country":"Burundi","timezone":"Africa/Bujumbura","lat":-3.3833,"lng":29.3667},{"slug":"bulawayo","name":"Bulawayo","country":"Zimbabwe","timezone":"Africa/Harare","lat":-20.17,"lng":28.58},{"slug":"bunamwaya","name":"Bunamwaya","country":"Uganda","timezone":"Africa/Kampala","lat":0.3136,"lng":32.5811},{"slug":"bunbury","name":"Bunbury","country":"Australia","timezone":"Australia/Perth","lat":-33.3272,"lng":115.6369},{"slug":"bununka-kunda","name":"Bununka Kunda","country":"Gambia","timezone":"Africa/Banjul","lat":13.4333,"lng":-16.6667},{"slug":"burgas","name":"Burgas","country":"Bulgaria","timezone":"Europe/Sofia","lat":42.503,"lng":27.4702},{"slug":"burnaby","name":"Burnaby","country":"Canada","timezone":"America/Vancouver","lat":49.2667,"lng":-122.9667},{"slug":"bursa","name":"Bursa","country":"Turkey","timezone":"Europe/Istanbul","lat":40.1833,"lng":29.05},{"slug":"busan","name":"Busan","country":"South Korea","timezone":"Asia/Seoul","lat":35.18,"lng":129.075},{"slug":"cairo","name":"Cairo","country":"Egypt","timezone":"Africa/Cairo","lat":30.0444,"lng":31.2358},{"slug":"calgary","name":"Calgary","country":"Canada","timezone":"America/Edmonton","lat":51.05,"lng":-114.0667},{"slug":"cali","name":"Cali","country":"Colombia","timezone":"America/Bogota","lat":3.4206,"lng":-76.5222},{"slug":"callao","name":"Callao","country":"Peru","timezone":"America/Lima","lat":-12.0333,"lng":-77.1333},{"slug":"calliaqua","name":"Calliaqua","country":"Saint Vincent and the Grenadines","timezone":"America/St_Vincent","lat":13.1308,"lng":-61.1928},{"slug":"caloocan-city","name":"Caloocan City","country":"Philippines","timezone":"Asia/Manila","lat":14.65,"lng":120.97},{"slug":"camaguey","name":"Camagüey","country":"Cuba","timezone":"America/Havana","lat":21.3839,"lng":-77.9075},{"slug":"camayenne","name":"Camayenne","country":"Guinea","timezone":"Africa/Conakry","lat":9.5092,"lng":-13.7122},{"slug":"campo-grande","name":"Campo Grande","country":"Brazil","timezone":"America/Manaus","lat":-20.4839,"lng":-54.615},{"slug":"can-tho","name":"Cần Thơ","country":"Vietnam","timezone":"Asia/Ho_Chi_Minh","lat":10.0333,"lng":105.7833},{"slug":"canberra","name":"Canberra","country":"Australia","timezone":"Australia/Sydney","lat":-35.2931,"lng":149.1269},{"slug":"cancun","name":"Cancún","country":"Mexico","timezone":"America/Cancun","lat":21.1606,"lng":-86.8475},{"slug":"cape-town","name":"Cape Town","country":"South Africa","timezone":"Africa/Johannesburg","lat":-33.9253,"lng":18.4239},{"slug":"capiata","name":"Capiatá","country":"Paraguay","timezone":"America/Asuncion","lat":-25.35,"lng":-57.42},{"slug":"caracas","name":"Caracas","country":"Venezuela","timezone":"America/Caracas","lat":10.4806,"lng":-66.9036},{"slug":"carnot","name":"Carnot","country":"Central African Republic","timezone":"Africa/Bangui","lat":4.94,"lng":15.87},{"slug":"carolina","name":"Carolina","country":"Puerto Rico","timezone":"America/Puerto_Rico","lat":18.4054,"lng":-65.9792},{"slug":"carrefour","name":"Carrefour","country":"Haiti","timezone":"America/Port-au-Prince","lat":18.5344,"lng":-72.4094},{"slug":"casablanca","name":"Casablanca","country":"Morocco","timezone":"Africa/Casablanca","lat":33.5333,"lng":-7.5833},{"slug":"casey","name":"Casey","country":"Antarctica","timezone":"Antarctica/Casey","lat":-66.28,"lng":110.53},{"slug":"castries","name":"Castries","country":"Saint Lucia","timezone":"America/St_Lucia","lat":14.0167,"lng":-60.9833},{"slug":"cayenne","name":"Cayenne","country":"French Guiana","timezone":"America/Cayenne","lat":4.933,"lng":-52.33},{"slug":"celje","name":"Celje","country":"Slovenia","timezone":"Europe/Ljubljana","lat":46.2358,"lng":15.2675},{"slug":"chagos","name":"Chagos","country":"British Indian Ocean Territory","timezone":"Indian/Chagos","lat":-7.31,"lng":72.42},{"slug":"chaguanas","name":"Chaguanas","country":"Trinidad and Tobago","timezone":"America/Port_of_Spain","lat":10.5167,"lng":-61.4},{"slug":"chandler","name":"Chandler","country":"United States","timezone":"America/Phoenix","lat":33.2825,"lng":-111.8514},{"slug":"charleroi","name":"Charleroi","country":"Belgium","timezone":"Europe/Brussels","lat":50.4,"lng":4.4333},{"slug":"charlotte-amalie","name":"Charlotte Amalie","country":"U.S. Virgin Islands","timezone":"America/St_Thomas","lat":18.342,"lng":-64.9331},{"slug":"chatham","name":"Chatham","country":"New Zealand","timezone":"Pacific/Chatham","lat":42.4229,"lng":-82.1324},{"slug":"chattogram","name":"Chattogram","country":"Bangladesh","timezone":"Asia/Dhaka","lat":22.335,"lng":91.8325},{"slug":"chelyabinsk","name":"Chelyabinsk","country":"Russia","timezone":"Asia/Yekaterinburg","lat":55.15,"lng":61.4},{"slug":"chernyakhovsk","name":"Chernyakhovsk","country":"Russia","timezone":"Europe/Kaliningrad","lat":54.6347,"lng":21.8119},{"slug":"chetumal","name":"Chetumal","country":"Mexico","timezone":"America/Cancun","lat":18.5036,"lng":-88.3053},{"slug":"chicago","name":"Chicago","country":"United States","timezone":"America/Chicago","lat":41.8375,"lng":-87.6866},{"slug":"chinandega","name":"Chinandega","country":"Nicaragua","timezone":"America/Managua","lat":12.6297,"lng":-87.1283},{"slug":"chipata","name":"Chipata","country":"Zambia","timezone":"Africa/Lusaka","lat":-13.6453,"lng":32.6464},{"slug":"chisinau","name":"Chisinau","country":"Moldova","timezone":"Europe/Chisinau","lat":47.0228,"lng":28.8353},{"slug":"chita","name":"Chita","country":"Russia","timezone":"Asia/Chita","lat":52.0333,"lng":113.5},{"slug":"chitungwiza","name":"Chitungwiza","country":"Zimbabwe","timezone":"Africa/Harare","lat":-17.9939,"lng":31.0481},{"slug":"choibalsan","name":"Choibalsan","country":"Mongolia","timezone":"Asia/Ulaanbaatar","lat":49.0278,"lng":104.0444},{"slug":"choloma","name":"Choloma","country":"Honduras","timezone":"America/Tegucigalpa","lat":15.6136,"lng":-87.9511},{"slug":"chon-buri","name":"Chon Buri","country":"Thailand","timezone":"Asia/Bangkok","lat":13.3611,"lng":100.985},{"slug":"christchurch","name":"Christchurch","country":"New Zealand","timezone":"Pacific/Auckland","lat":-43.531,"lng":172.6365},{"slug":"chuuk","name":"Chuuk","country":"Micronesia","timezone":"Pacific/Chuuk","lat":7.45,"lng":151.85},{"slug":"ciudad-acuna","name":"Ciudad Acuña","country":"Mexico","timezone":"America/Matamoros","lat":29.3242,"lng":-100.9317},{"slug":"ciudad-del-este","name":"Ciudad del Este","country":"Paraguay","timezone":"America/Asuncion","lat":-25.5167,"lng":-54.6167},{"slug":"ciudad-juarez","name":"Ciudad Juárez","country":"Mexico","timezone":"America/Ciudad_Juarez","lat":31.69,"lng":-106.42},{"slug":"coban","name":"Cobán","country":"Guatemala","timezone":"America/Guatemala","lat":15.4833,"lng":-90.3667},{"slug":"cochabamba","name":"Cochabamba","country":"Bolivia","timezone":"America/La_Paz","lat":-17.3833,"lng":-66.1667},{"slug":"cockburn-town","name":"Cockburn Town","country":"Turks and Caicos Islands","timezone":"America/Grand_Turk","lat":21.46,"lng":-71.14},{"slug":"colombo","name":"Colombo","country":"Sri Lanka","timezone":"Asia/Colombo","lat":6.9344,"lng":79.8428},{"slug":"colorado-springs","name":"Colorado Springs","country":"United States","timezone":"America/Denver","lat":38.8674,"lng":-104.7605},{"slug":"conakry","name":"Conakry","country":"Guinea","timezone":"Africa/Conakry","lat":9.5092,"lng":-13.7122},{"slug":"constantine","name":"Constantine","country":"Algeria","timezone":"Africa/Algiers","lat":36.365,"lng":6.6147},{"slug":"copenhagen","name":"Copenhagen","country":"Denmark","timezone":"Europe/Copenhagen","lat":55.6761,"lng":12.5683},{"slug":"cordoba","name":"Córdoba","country":"Argentina","timezone":"America/Argentina/Buenos_Aires","lat":-31.4167,"lng":-64.1833},{"slug":"cork","name":"Cork","country":"Ireland","timezone":"Europe/Dublin","lat":51.8972,"lng":-8.47},{"slug":"corner-brook","name":"Corner Brook","country":"Canada","timezone":"America/St_Johns","lat":48.9287,"lng":-57.926},{"slug":"cotonou","name":"Cotonou","country":"Benin","timezone":"Africa/Porto-Novo","lat":6.3667,"lng":2.4333},{"slug":"coyhaique","name":"Coyhaique","country":"Chile","timezone":"America/Punta_Arenas","lat":-45.5667,"lng":-72.0667},{"slug":"cozumel","name":"Cozumel","country":"Mexico","timezone":"America/Cancun","lat":20.5104,"lng":-86.9493},{"slug":"creston","name":"Creston","country":"Canada","timezone":"America/Whitehorse","lat":60.7029,"lng":-135.0691},{"slug":"cruzeiro-do-sul","name":"Cruzeiro do Sul","country":"Brazil","timezone":"America/Rio_Branco","lat":-7.6308,"lng":-72.67},{"slug":"cuenca","name":"Cuenca","country":"Ecuador","timezone":"America/Guayaquil","lat":-2.8974,"lng":-79.0045},{"slug":"cuiaba","name":"Cuiabá","country":"Brazil","timezone":"America/Manaus","lat":-15.5958,"lng":-56.0969},{"slug":"culiacan","name":"Culiacán","country":"Mexico","timezone":"America/Hermosillo","lat":24.8069,"lng":-107.3939},{"slug":"curepipe","name":"Curepipe","country":"Mauritius","timezone":"Indian/Mauritius","lat":-20.3188,"lng":57.5263},{"slug":"da-nang","name":"Da Nang","country":"Vietnam","timezone":"Asia/Ho_Chi_Minh","lat":16.0748,"lng":108.224},{"slug":"daegu","name":"Daegu","country":"South Korea","timezone":"Asia/Seoul","lat":35.8717,"lng":128.6017},{"slug":"dakar","name":"Dakar","country":"Senegal","timezone":"Africa/Dakar","lat":14.6928,"lng":-17.4467},{"slug":"dakhla","name":"Dakhla","country":"Western Sahara","timezone":"Africa/El_Aaiun","lat":27.1536,"lng":-13.2033},{"slug":"dallas","name":"Dallas","country":"United States","timezone":"America/Chicago","lat":32.7935,"lng":-96.7667},{"slug":"damascus","name":"Damascus","country":"Syria","timezone":"Asia/Damascus","lat":33.5131,"lng":36.2919},{"slug":"danmarkshavn","name":"Danmarkshavn","country":"Greenland","timezone":"America/Danmarkshavn","lat":76.77,"lng":-18.67},{"slug":"dar-es-salaam","name":"Dar es Salaam","country":"Tanzania","timezone":"Africa/Dar_es_Salaam","lat":-6.8161,"lng":39.2803},{"slug":"dar-naim","name":"Dar Naim","country":"Mauritania","timezone":"Africa/Nouakchott","lat":18.0333,"lng":-15.9667},{"slug":"darhan","name":"Darhan","country":"Mongolia","timezone":"Asia/Ulaanbaatar","lat":49.4689,"lng":105.9575},{"slug":"dartmouth","name":"Dartmouth","country":"Canada","timezone":"America/Halifax","lat":41.6138,"lng":-70.9973},{"slug":"darwin","name":"Darwin","country":"Australia","timezone":"Australia/Darwin","lat":-12.4381,"lng":130.8411},{"slug":"dasoguz","name":"Daşoguz","country":"Turkmenistan","timezone":"Asia/Ashgabat","lat":41.8333,"lng":59.9667},{"slug":"daugavpils","name":"Daugavpils","country":"Latvia","timezone":"Europe/Riga","lat":55.875,"lng":26.5356},{"slug":"davao","name":"Davao","country":"Philippines","timezone":"Asia/Manila","lat":7.0667,"lng":125.6},{"slug":"david","name":"David","country":"Panama","timezone":"America/Panama","lat":8.4333,"lng":-82.4333},{"slug":"davis","name":"Davis","country":"Antarctica","timezone":"Antarctica/Davis","lat":38.5553,"lng":-121.737},{"slug":"dawson","name":"Dawson","country":"Canada","timezone":"America/Whitehorse","lat":60.7029,"lng":-135.0691},{"slug":"debrecen","name":"Debrecen","country":"Hungary","timezone":"Europe/Budapest","lat":47.53,"lng":21.6392},{"slug":"dededo-village","name":"Dededo Village","country":"Guam","timezone":"Pacific/Guam","lat":13.52,"lng":144.84},{"slug":"dehiwala-mount-lavinia","name":"Dehiwala-Mount Lavinia","country":"Sri Lanka","timezone":"Asia/Colombo","lat":6.9344,"lng":79.8428},{"slug":"delhi","name":"Delhi","country":"India","timezone":"Asia/Kolkata","lat":28.61,"lng":77.23},{"slug":"delmas","name":"Delmas","country":"Haiti","timezone":"America/Port-au-Prince","lat":18.55,"lng":-72.3},{"slug":"denpasar","name":"Denpasar","country":"Indonesia","timezone":"Asia/Makassar","lat":-8.65,"lng":115.2167},{"slug":"denver","name":"Denver","country":"United States","timezone":"America/Denver","lat":39.762,"lng":-104.8758},{"slug":"dhaka","name":"Dhaka","country":"Bangladesh","timezone":"Asia/Dhaka","lat":23.7639,"lng":90.3889},{"slug":"dikhil","name":"Dikhil","country":"Djibouti","timezone":"Africa/Djibouti","lat":11.1167,"lng":42.3667},{"slug":"dili","name":"Dili","country":"Timor Leste","timezone":"Asia/Dili","lat":-8.5536,"lng":125.5783},{"slug":"djibouti","name":"Djibouti","country":"Djibouti","timezone":"Africa/Djibouti","lat":11.5883,"lng":43.145},{"slug":"dnipro","name":"Dnipro","country":"Ukraine","timezone":"Europe/Kyiv","lat":48.4675,"lng":35.04},{"slug":"dodoma","name":"Dodoma","country":"Tanzania","timezone":"Africa/Dar_es_Salaam","lat":-6.1731,"lng":35.7419},{"slug":"doha","name":"Doha","country":"Qatar","timezone":"Asia/Qatar","lat":25.2867,"lng":51.5333},{"slug":"dolisie","name":"Dolisie","country":"Republic of the Congo","timezone":"Africa/Brazzaville","lat":-4.2,"lng":12.6667},{"slug":"douala","name":"Douala","country":"Cameroon","timezone":"Africa/Douala","lat":4.05,"lng":9.7},{"slug":"douglas","name":"Douglas","country":"Isle of Man","timezone":"Europe/Isle_of_Man","lat":54.145,"lng":-4.482},{"slug":"dubai","name":"Dubai","country":"United Arab Emirates","timezone":"Asia/Dubai","lat":25.2631,"lng":55.2972},{"slug":"dublin","name":"Dublin","country":"Ireland","timezone":"Europe/Dublin","lat":53.35,"lng":-6.2603},{"slug":"dudelange","name":"Dudelange","country":"Luxembourg","timezone":"Europe/Luxembourg","lat":49.4833,"lng":6.0833},{"slug":"dumbea","name":"Dumbéa","country":"New Caledonia","timezone":"Pacific/Noumea","lat":-22.15,"lng":166.45},{"slug":"dumontdurville","name":"DumontDUrville","country":"Antarctica","timezone":"Antarctica/DumontDUrville","lat":-66.66,"lng":140},{"slug":"durban","name":"Durban","country":"South Africa","timezone":"Africa/Johannesburg","lat":-29.8833,"lng":31.05},{"slug":"durres","name":"Durrës","country":"Albania","timezone":"Europe/Tirane","lat":41.3111,"lng":19.4392},{"slug":"dushanbe","name":"Dushanbe","country":"Tajikistan","timezone":"Asia/Dushanbe","lat":38.5367,"lng":68.78},{"slug":"eagle-river","name":"Eagle River","country":"United States","timezone":"America/Anchorage","lat":43.7223,"lng":-116.3866},{"slug":"east-honolulu","name":"East Honolulu","country":"United States","timezone":"Pacific/Honolulu","lat":21.2975,"lng":-157.7211},{"slug":"east-jerusalem","name":"East Jerusalem","country":"Palestinian Territory","timezone":"Asia/Hebron","lat":31.5069,"lng":34.456},{"slug":"easter","name":"Easter","country":"Chile","timezone":"Pacific/Easter","lat":-27.12,"lng":-109.35},{"slug":"ebebiyin","name":"Ebebiyin","country":"Equatorial Guinea","timezone":"Africa/Malabo","lat":2.15,"lng":11.3167},{"slug":"ecatepec-de-morelos","name":"Ecatepec de Morelos","country":"Mexico","timezone":"America/Mexico_City","lat":19.6097,"lng":-99.06},{"slug":"edmonton","name":"Edmonton","country":"Canada","timezone":"America/Edmonton","lat":53.5344,"lng":-113.4903},{"slug":"el-paso","name":"El Paso","country":"United States","timezone":"America/Denver","lat":31.8476,"lng":-106.43},{"slug":"elbasan","name":"Elbasan","country":"Albania","timezone":"Europe/Tirane","lat":41.1111,"lng":20.0806},{"slug":"ensenada","name":"Ensenada","country":"Mexico","timezone":"America/Tijuana","lat":31.8578,"lng":-116.6058},{"slug":"erdenet","name":"Erdenet","country":"Mongolia","timezone":"Asia/Ulaanbaatar","lat":49.0278,"lng":104.0444},{"slug":"esch-sur-alzette","name":"Esch-sur-Alzette","country":"Luxembourg","timezone":"Europe/Luxembourg","lat":49.4969,"lng":5.9806},{"slug":"espargos","name":"Espargos","country":"Cabo Verde","timezone":"Atlantic/Cape_Verde","lat":16.756,"lng":-22.946},{"slug":"espoo","name":"Espoo","country":"Finland","timezone":"Europe/Helsinki","lat":60.2056,"lng":24.6556},{"slug":"eucla","name":"Eucla","country":"Australia","timezone":"Australia/Eucla","lat":-31.68,"lng":128.88},{"slug":"faaa","name":"Faaa","country":"French Polynesia","timezone":"Pacific/Tahiti","lat":-17.5334,"lng":-149.5667},{"slug":"fairbanks","name":"Fairbanks","country":"United States","timezone":"America/Anchorage","lat":64.8353,"lng":-147.6533},{"slug":"faisalabad","name":"Faisalabad","country":"Pakistan","timezone":"Asia/Karachi","lat":31.4167,"lng":73.0911},{"slug":"fakaofo","name":"Fakaofo","country":"Tokelau","timezone":"Pacific/Fakaofo","lat":-9.37,"lng":-171.22},{"slug":"favoriten","name":"Favoriten","country":"Austria","timezone":"Europe/Vienna","lat":48.2083,"lng":16.3725},{"slug":"fes","name":"Fes","country":"Morocco","timezone":"Africa/Casablanca","lat":34.0433,"lng":-5.0033},{"slug":"flora","name":"Flora","country":"Suriname","timezone":"America/Paramaribo","lat":18.2147,"lng":121.4186},{"slug":"flying-fish-cove","name":"Flying Fish Cove","country":"Christmas Island","timezone":"Indian/Christmas","lat":-10.4167,"lng":105.7167},{"slug":"fomboni","name":"Fomboni","country":"Comoros","timezone":"Indian/Comoro","lat":-12.28,"lng":43.7425},{"slug":"fort-de-france","name":"Fort-de-France","country":"Martinique","timezone":"America/Martinique","lat":14.6,"lng":-61.0667},{"slug":"fort-st-john","name":"Fort St. John","country":"Canada","timezone":"America/Whitehorse","lat":56.2465,"lng":-120.8476},{"slug":"franceville","name":"Franceville","country":"Gabon","timezone":"Africa/Libreville","lat":-1.6333,"lng":13.5833},{"slug":"francistown","name":"Francistown","country":"Botswana","timezone":"Africa/Gaborone","lat":-21.1736,"lng":27.5125},{"slug":"freeport","name":"Freeport","country":"Bahamas","timezone":"America/Nassau","lat":40.6515,"lng":-73.585},{"slug":"freetown","name":"Freetown","country":"Sierra Leone","timezone":"Africa/Freetown","lat":8.4844,"lng":-13.2344},{"slug":"funafuti","name":"Funafuti","country":"Tuvalu","timezone":"Pacific/Funafuti","lat":-8.5167,"lng":179.2},{"slug":"gaborone","name":"Gaborone","country":"Botswana","timezone":"Africa/Gaborone","lat":-24.6581,"lng":25.9122},{"slug":"gabu","name":"Gabú","country":"Guinea-Bissau","timezone":"Africa/Bissau","lat":12.2833,"lng":-14.2167},{"slug":"galapagos","name":"Galapagos","country":"Ecuador","timezone":"Pacific/Galapagos","lat":-0.74,"lng":-90.31},{"slug":"gambier","name":"Gambier","country":"French Polynesia","timezone":"Pacific/Gambier","lat":-23.13,"lng":-134.97},{"slug":"ganja","name":"Ganja","country":"Azerbaijan","timezone":"Asia/Baku","lat":40.3667,"lng":49.8352},{"slug":"ganta","name":"Ganta","country":"Liberia","timezone":"Africa/Monrovia","lat":7.2375,"lng":-8.9814},{"slug":"gaza","name":"Gaza","country":"Palestinian Territory","timezone":"Asia/Hebron","lat":31.5069,"lng":34.456},{"slug":"gazipur","name":"Gazipur","country":"Bangladesh","timezone":"Asia/Dhaka","lat":23.7639,"lng":90.3889},{"slug":"gbarnga","name":"Gbarnga","country":"Liberia","timezone":"Africa/Monrovia","lat":6.998,"lng":-9.473},{"slug":"geneve","name":"Genève","country":"Switzerland","timezone":"Europe/Zurich","lat":47.3744,"lng":8.5411},{"slug":"gent","name":"Gent","country":"Belgium","timezone":"Europe/Brussels","lat":51.0536,"lng":3.7253},{"slug":"george-town","name":"George Town","country":"Cayman Islands","timezone":"America/Cayman","lat":19.2866,"lng":-81.3744},{"slug":"georgetown","name":"Georgetown","country":"Guyana","timezone":"America/Guyana","lat":6.8058,"lng":-58.1508},{"slug":"geraldton","name":"Geraldton","country":"Australia","timezone":"Australia/Perth","lat":-28.7744,"lng":114.6089},{"slug":"gibraltar","name":"Gibraltar","country":"Gibraltar","timezone":"Europe/Gibraltar","lat":36.1333,"lng":-5.35},{"slug":"gisenyi","name":"Gisenyi","country":"Rwanda","timezone":"Africa/Kigali","lat":-1.7,"lng":29.25},{"slug":"gitega","name":"Gitega","country":"Burundi","timezone":"Africa/Bujumbura","lat":-3.4283,"lng":29.925},{"slug":"giza","name":"Giza","country":"Egypt","timezone":"Africa/Cairo","lat":29.987,"lng":31.2118},{"slug":"glasgow","name":"Glasgow","country":"United Kingdom","timezone":"Europe/London","lat":55.8611,"lng":-4.25},{"slug":"gold-coast","name":"Gold Coast","country":"Australia","timezone":"Australia/Brisbane","lat":-28.0167,"lng":153.4},{"slug":"gonder","name":"Gonder","country":"Ethiopia","timezone":"Africa/Addis_Ababa","lat":12.6075,"lng":37.4592},{"slug":"goteborg","name":"Göteborg","country":"Sweden","timezone":"Europe/Stockholm","lat":57.7075,"lng":11.9675},{"slug":"graz","name":"Graz","country":"Austria","timezone":"Europe/Vienna","lat":47.0708,"lng":15.4386},{"slug":"gros-islet","name":"Gros Islet","country":"Saint Lucia","timezone":"America/St_Lucia","lat":14.081,"lng":-60.953},{"slug":"grytviken","name":"Grytviken","country":"South Georgia and the South Sandwich Islands","timezone":"Atlantic/South_Georgia","lat":-54.2806,"lng":-36.508},{"slug":"guangzhou","name":"Guangzhou","country":"China","timezone":"Asia/Shanghai","lat":23.13,"lng":113.26},{"slug":"guatemala-city","name":"Guatemala City","country":"Guatemala","timezone":"America/Guatemala","lat":14.6099,"lng":-90.5252},{"slug":"guayaquil","name":"Guayaquil","country":"Ecuador","timezone":"America/Guayaquil","lat":-2.19,"lng":-79.8875},{"slug":"guediawaye","name":"Guédiawaye","country":"Senegal","timezone":"Africa/Dakar","lat":14.7833,"lng":-17.4},{"slug":"gustavia","name":"Gustavia","country":"Saint Barthelemy","timezone":"America/St_Barthelemy","lat":17.8958,"lng":-62.8508},{"slug":"hafnarfjor-ur","name":"Hafnarfjörður","country":"Iceland","timezone":"Atlantic/Reykjavik","lat":64.1467,"lng":-21.94},{"slug":"haifa","name":"Haifa","country":"Israel","timezone":"Asia/Jerusalem","lat":32.8192,"lng":34.9992},{"slug":"halifax","name":"Halifax","country":"Canada","timezone":"America/Halifax","lat":44.6475,"lng":-63.5906},{"slug":"hamburg","name":"Hamburg","country":"Germany","timezone":"Europe/Berlin","lat":53.55,"lng":10},{"slug":"hamhung","name":"Hamhŭng","country":"North Korea","timezone":"Asia/Pyongyang","lat":39.9167,"lng":127.5333},{"slug":"hamilton","name":"Hamilton","country":"Bermuda","timezone":"Atlantic/Bermuda","lat":32.2942,"lng":-64.7839},{"slug":"harare","name":"Harare","country":"Zimbabwe","timezone":"Africa/Harare","lat":-17.8292,"lng":31.0522},{"slug":"hargeysa","name":"Hargeysa","country":"Somalia","timezone":"Africa/Mogadishu","lat":9.5631,"lng":44.0675},{"slug":"havana","name":"Havana","country":"Cuba","timezone":"America/Havana","lat":23.1367,"lng":-82.3589},{"slug":"hawalli","name":"Ḩawallī","country":"Kuwait","timezone":"Asia/Kuwait","lat":29.0769,"lng":48.0838},{"slug":"helsinki","name":"Helsinki","country":"Finland","timezone":"Europe/Helsinki","lat":60.1708,"lng":24.9375},{"slug":"herat","name":"Herāt","country":"Afghanistan","timezone":"Asia/Kabul","lat":34.3419,"lng":62.2031},{"slug":"herceg-novi","name":"Herceg Novi","country":"Montenegro","timezone":"Europe/Podgorica","lat":42.453,"lng":18.5312},{"slug":"hermosillo","name":"Hermosillo","country":"Mexico","timezone":"America/Hermosillo","lat":29.0989,"lng":-110.9542},{"slug":"heroica-matamoros","name":"Heroica Matamoros","country":"Mexico","timezone":"America/Matamoros","lat":25.8797,"lng":-97.5042},{"slug":"himora","name":"Himora","country":"Eritrea","timezone":"Africa/Asmara","lat":14.2861,"lng":36.6097},{"slug":"hlaingthaya-township","name":"Hlaingthaya Township","country":"Myanmar","timezone":"Asia/Yangon","lat":21.9831,"lng":96.0844},{"slug":"ho-chi-minh-city","name":"Ho Chi Minh City","country":"Vietnam","timezone":"Asia/Ho_Chi_Minh","lat":10.7756,"lng":106.7019},{"slug":"holguin","name":"Holguín","country":"Cuba","timezone":"America/Havana","lat":20.8869,"lng":-76.2592},{"slug":"homs","name":"Homs","country":"Syria","timezone":"Asia/Damascus","lat":34.7333,"lng":36.7167},{"slug":"homyel","name":"Homyel'","country":"Belarus","timezone":"Europe/Minsk","lat":52.4453,"lng":30.9842},{"slug":"hong-kong","name":"Hong Kong","country":"Hong Kong","timezone":"Asia/Hong_Kong","lat":22.3,"lng":114.2},{"slug":"hong-kong-island","name":"Hong Kong Island","country":"Hong Kong","timezone":"Asia/Hong_Kong","lat":22.3,"lng":114.2},{"slug":"honiara","name":"Honiara","country":"Solomon Islands","timezone":"Pacific/Guadalcanal","lat":-9.4319,"lng":159.9556},{"slug":"honolulu","name":"Honolulu","country":"United States","timezone":"Pacific/Honolulu","lat":21.3294,"lng":-157.846},{"slug":"houston","name":"Houston","country":"United States","timezone":"America/Chicago","lat":29.786,"lng":-95.3885},{"slug":"hrodna","name":"Hrodna","country":"Belarus","timezone":"Europe/Minsk","lat":53.6667,"lng":23.8333},{"slug":"huambo","name":"Huambo","country":"Angola","timezone":"Africa/Luanda","lat":-12.7767,"lng":15.7347},{"slug":"hyderabad","name":"Hyderabad","country":"India","timezone":"Asia/Kolkata","lat":17.385,"lng":78.4867},{"slug":"iasi","name":"Iaşi","country":"Romania","timezone":"Europe/Bucharest","lat":47.1622,"lng":27.5889},{"slug":"ibadan","name":"Ibadan","country":"Nigeria","timezone":"Africa/Lagos","lat":7.3964,"lng":3.9167},{"slug":"ibb","name":"Ibb","country":"Yemen","timezone":"Asia/Aden","lat":13.9667,"lng":44.1667},{"slug":"ibri","name":"‘Ibrī","country":"Oman","timezone":"Asia/Muscat","lat":23.6139,"lng":58.5922},{"slug":"incheon","name":"Incheon","country":"South Korea","timezone":"Asia/Seoul","lat":37.4833,"lng":126.6333},{"slug":"irbid","name":"Irbid","country":"Jordan","timezone":"Asia/Amman","lat":32.55,"lng":35.85},{"slug":"irkutsk","name":"Irkutsk","country":"Russia","timezone":"Asia/Irkutsk","lat":52.2833,"lng":104.2833},{"slug":"isfahan","name":"Isfahan","country":"Iran","timezone":"Asia/Tehran","lat":35.6892,"lng":51.3889},{"slug":"isfara","name":"Isfara","country":"Tajikistan","timezone":"Asia/Dushanbe","lat":40.1167,"lng":70.6333},{"slug":"isil-kul","name":"Isil’kul’","country":"Russia","timezone":"Asia/Omsk","lat":54.9667,"lng":73.3833},{"slug":"istanbul","name":"Istanbul","country":"Turkey","timezone":"Europe/Istanbul","lat":41.0136,"lng":28.955},{"slug":"istaravshan","name":"Istaravshan","country":"Tajikistan","timezone":"Asia/Dushanbe","lat":39.9108,"lng":69.0064},{"slug":"izhevsk","name":"Izhevsk","country":"Russia","timezone":"Europe/Samara","lat":56.85,"lng":53.2167},{"slug":"izmir","name":"İzmir","country":"Turkey","timezone":"Europe/Istanbul","lat":38.42,"lng":27.14},{"slug":"iztapalapa","name":"Iztapalapa","country":"Mexico","timezone":"America/Mexico_City","lat":19.4333,"lng":-99.1333},{"slug":"jabalya","name":"Jabālyā","country":"Palestinian Territory","timezone":"Asia/Hebron","lat":31.5281,"lng":34.4831},{"slug":"jaffna","name":"Jaffna","country":"Sri Lanka","timezone":"Asia/Colombo","lat":9.6647,"lng":80.0167},{"slug":"jakarta","name":"Jakarta","country":"Indonesia","timezone":"Asia/Jakarta","lat":-6.175,"lng":106.8275},{"slug":"jalal-abad","name":"Jalal-Abad","country":"Kyrgyzstan","timezone":"Asia/Bishkek","lat":40.9333,"lng":73},{"slug":"jamestown","name":"Jamestown","country":"Saint Helena","timezone":"Atlantic/St_Helena","lat":-15.9251,"lng":-5.7179},{"slug":"jayapura","name":"Jayapura","country":"Indonesia","timezone":"Asia/Jayapura","lat":-2.533,"lng":140.717},{"slug":"jeddah","name":"Jeddah","country":"Saudi Arabia","timezone":"Asia/Riyadh","lat":21.5433,"lng":39.1728},{"slug":"jelgava","name":"Jelgava","country":"Latvia","timezone":"Europe/Riga","lat":56.6483,"lng":23.7139},{"slug":"jerusalem","name":"Jerusalem","country":"Israel","timezone":"Asia/Jerusalem","lat":31.7784,"lng":35.2066},{"slug":"jijiga","name":"Jijiga","country":"Ethiopia","timezone":"Africa/Addis_Ababa","lat":9.35,"lng":42.8},{"slug":"johannesburg","name":"Johannesburg","country":"South Africa","timezone":"Africa/Johannesburg","lat":-26.2044,"lng":28.0456},{"slug":"johor-bahru","name":"Johor Bahru","country":"Malaysia","timezone":"Asia/Kuala_Lumpur","lat":1.4556,"lng":103.7611},{"slug":"juan-diaz","name":"Juan Díaz","country":"Panama","timezone":"America/Panama","lat":9.033,"lng":-79.5},{"slug":"juba","name":"Juba","country":"South Sudan","timezone":"Africa/Juba","lat":4.85,"lng":31.6},{"slug":"juneau","name":"Juneau","country":"United States","timezone":"America/Anchorage","lat":58.4546,"lng":-134.1739},{"slug":"kabul","name":"Kabul","country":"Afghanistan","timezone":"Asia/Kabul","lat":34.5253,"lng":69.1783},{"slug":"kairouan","name":"Kairouan","country":"Tunisia","timezone":"Africa/Tunis","lat":35.6772,"lng":10.1008},{"slug":"kakamega","name":"Kakamega","country":"Kenya","timezone":"Africa/Nairobi","lat":0.2822,"lng":34.754},{"slug":"kalachinsk","name":"Kalachinsk","country":"Russia","timezone":"Asia/Omsk","lat":55.05,"lng":74.5833},{"slug":"kaliningrad","name":"Kaliningrad","country":"Russia","timezone":"Europe/Kaliningrad","lat":54.7003,"lng":20.4531},{"slug":"kampala","name":"Kampala","country":"Uganda","timezone":"Africa/Kampala","lat":0.3136,"lng":32.5811},{"slug":"kampung-baru-subang","name":"Kampung Baru Subang","country":"Malaysia","timezone":"Asia/Kuala_Lumpur","lat":3.1478,"lng":101.6953},{"slug":"kananga","name":"Kananga","country":"Democratic Republic of the Congo","timezone":"Africa/Lubumbashi","lat":-5.897,"lng":22.4488},{"slug":"kandahar","name":"Kandahār","country":"Afghanistan","timezone":"Asia/Kabul","lat":31.62,"lng":65.7158},{"slug":"kankan","name":"Kankan","country":"Guinea","timezone":"Africa/Conakry","lat":10.3833,"lng":-9.3},{"slug":"kano","name":"Kano","country":"Nigeria","timezone":"Africa/Lagos","lat":12,"lng":8.5167},{"slug":"kanton","name":"Kanton","country":"Kiribati","timezone":"Pacific/Kanton","lat":-2.82,"lng":-171.72},{"slug":"kaohsiung","name":"Kaohsiung","country":"Taiwan","timezone":"Asia/Taipei","lat":22.615,"lng":120.2975},{"slug":"kaoueni","name":"Kaouéni","country":"Mayotte","timezone":"Indian/Mayotte","lat":-12.7794,"lng":45.2272},{"slug":"kara","name":"Kara","country":"Togo","timezone":"Africa/Lome","lat":9.5511,"lng":1.1861},{"slug":"karachi","name":"Karachi","country":"Pakistan","timezone":"Asia/Karachi","lat":24.86,"lng":67.01},{"slug":"karagandy","name":"Karagandy","country":"Kazakhstan","timezone":"Asia/Almaty","lat":43.2775,"lng":76.8958},{"slug":"karaj","name":"Karaj","country":"Iran","timezone":"Asia/Tehran","lat":35.8272,"lng":50.9489},{"slug":"karakol","name":"Karakol","country":"Kyrgyzstan","timezone":"Asia/Bishkek","lat":42.4903,"lng":78.3917},{"slug":"kathmandu","name":"Kathmandu","country":"Nepal","timezone":"Asia/Kathmandu","lat":27.7172,"lng":85.324},{"slug":"kaunas","name":"Kaunas","country":"Lithuania","timezone":"Europe/Vilnius","lat":54.8972,"lng":23.8861},{"slug":"kazan","name":"Kazan","country":"Russia","timezone":"Europe/Moscow","lat":55.7964,"lng":49.1089},{"slug":"kenema","name":"Kenema","country":"Sierra Leone","timezone":"Africa/Freetown","lat":7.8758,"lng":-11.1908},{"slug":"kenora","name":"Kenora","country":"Canada","timezone":"America/Winnipeg","lat":49.7667,"lng":-94.4833},{"slug":"kerch","name":"Kerch","country":"Ukraine","timezone":"Europe/Simferopol","lat":45.3619,"lng":36.4711},{"slug":"keren","name":"Keren","country":"Eritrea","timezone":"Africa/Asmara","lat":15.7778,"lng":38.4581},{"slug":"khabarovsk","name":"Khabarovsk","country":"Russia","timezone":"Asia/Vladivostok","lat":48.4833,"lng":135.0667},{"slug":"khabarovsk-vtoroy","name":"Khabarovsk Vtoroy","country":"Russia","timezone":"Asia/Vladivostok","lat":48.4833,"lng":135.0667},{"slug":"khan-yunis","name":"Khān Yūnis","country":"Palestinian Territory","timezone":"Asia/Hebron","lat":31.3444,"lng":34.3031},{"slug":"kharkiv","name":"Kharkiv","country":"Ukraine","timezone":"Europe/Kyiv","lat":49.9925,"lng":36.2311},{"slug":"khartoum","name":"Khartoum","country":"Sudan","timezone":"Africa/Khartoum","lat":15.5006,"lng":32.56},{"slug":"khartoum-north","name":"Khartoum North","country":"Sudan","timezone":"Africa/Khartoum","lat":15.6333,"lng":32.6333},{"slug":"kholmsk","name":"Kholmsk","country":"Russia","timezone":"Asia/Sakhalin","lat":47.05,"lng":142.05},{"slug":"khovd","name":"Khovd","country":"Mongolia","timezone":"Asia/Hovd","lat":49.9833,"lng":92.0667},{"slug":"khulna","name":"Khulna","country":"Bangladesh","timezone":"Asia/Dhaka","lat":22.8167,"lng":89.55},{"slug":"kiffa","name":"Kiffa","country":"Mauritania","timezone":"Africa/Nouakchott","lat":16.63,"lng":-11.4},{"slug":"kigali","name":"Kigali","country":"Rwanda","timezone":"Africa/Kigali","lat":-1.9536,"lng":30.0606},{"slug":"kikwit","name":"Kikwit","country":"Democratic Republic of the Congo","timezone":"Africa/Kinshasa","lat":-5.0386,"lng":18.8181},{"slug":"killarney","name":"Killarney","country":"Bahamas","timezone":"America/Nassau","lat":52.0588,"lng":-9.5072},{"slug":"kingston","name":"Kingston","country":"Jamaica","timezone":"America/Jamaica","lat":17.9714,"lng":-76.7931},{"slug":"kingstown","name":"Kingstown","country":"Saint Vincent and the Grenadines","timezone":"America/St_Vincent","lat":13.1578,"lng":-61.225},{"slug":"kinshasa","name":"Kinshasa","country":"Democratic Republic of the Congo","timezone":"Africa/Kinshasa","lat":-4.325,"lng":15.3222},{"slug":"kira","name":"Kira","country":"Uganda","timezone":"Africa/Kampala","lat":0.3136,"lng":32.5811},{"slug":"kiritimati","name":"Kiritimati","country":"Kiribati","timezone":"Pacific/Kiritimati","lat":1.87,"lng":-157.47},{"slug":"kisangani","name":"Kisangani","country":"Democratic Republic of the Congo","timezone":"Africa/Lubumbashi","lat":0.5153,"lng":25.1911},{"slug":"kitwe","name":"Kitwe","country":"Zambia","timezone":"Africa/Lusaka","lat":-12.8167,"lng":28.2},{"slug":"klaipeda","name":"Klaipėda","country":"Lithuania","timezone":"Europe/Vilnius","lat":55.75,"lng":21.1667},{"slug":"koidu","name":"Koidu","country":"Sierra Leone","timezone":"Africa/Freetown","lat":8.6439,"lng":-10.9717},{"slug":"koln","name":"Köln","country":"Germany","timezone":"Europe/Berlin","lat":50.9364,"lng":6.9528},{"slug":"komsomolsk-on-amur","name":"Komsomolsk-on-Amur","country":"Russia","timezone":"Asia/Vladivostok","lat":48.4833,"lng":135.0667},{"slug":"kopavogur","name":"Kópavogur","country":"Iceland","timezone":"Atlantic/Reykjavik","lat":64.1108,"lng":-21.9094},{"slug":"korhogo","name":"Korhogo","country":"Ivory Coast","timezone":"Africa/Abidjan","lat":9.4167,"lng":-5.6167},{"slug":"korla","name":"Korla","country":"China","timezone":"Asia/Urumqi","lat":41.7259,"lng":86.1746},{"slug":"korsakov","name":"Korsakov","country":"Russia","timezone":"Asia/Sakhalin","lat":46.6333,"lng":142.7667},{"slug":"kosice","name":"Košice","country":"Slovakia","timezone":"Europe/Bratislava","lat":48.7167,"lng":21.25},{"slug":"kosrae","name":"Kosrae","country":"Micronesia","timezone":"Pacific/Kosrae","lat":6.9178,"lng":158.185},{"slug":"koudougou","name":"Koudougou","country":"Burkina Faso","timezone":"Africa/Ouagadougou","lat":12.25,"lng":-2.3667},{"slug":"koungou","name":"Koungou","country":"Mayotte","timezone":"Indian/Mayotte","lat":-12.7794,"lng":45.2272},{"slug":"kourou","name":"Kourou","country":"French Guiana","timezone":"America/Cayenne","lat":5.16,"lng":-52.6499},{"slug":"koutiala","name":"Koutiala","country":"Mali","timezone":"Africa/Bamako","lat":12.3833,"lng":-5.4667},{"slug":"kowloon","name":"Kowloon","country":"Hong Kong","timezone":"Asia/Hong_Kong","lat":22.3167,"lng":114.1833},{"slug":"krakow","name":"Kraków","country":"Poland","timezone":"Europe/Warsaw","lat":50.0614,"lng":19.9372},{"slug":"kralendijk","name":"Kralendijk","country":"Bonaire, Saint Eustatius and Saba ","timezone":"America/Kralendijk","lat":12.1444,"lng":-68.2656},{"slug":"kranj","name":"Kranj","country":"Slovenia","timezone":"Europe/Ljubljana","lat":46.2333,"lng":14.3667},{"slug":"krasnoyarsk","name":"Krasnoyarsk","country":"Russia","timezone":"Asia/Novosibirsk","lat":56.0089,"lng":92.8719},{"slug":"kuala-belait","name":"Kuala Belait","country":"Brunei","timezone":"Asia/Brunei","lat":4.5828,"lng":114.1918},{"slug":"kuala-lumpur","name":"Kuala Lumpur","country":"Malaysia","timezone":"Asia/Kuala_Lumpur","lat":3.1478,"lng":101.6953},{"slug":"kulob","name":"Kŭlob","country":"Tajikistan","timezone":"Asia/Dushanbe","lat":37.9092,"lng":69.7819},{"slug":"kumanovo","name":"Kumanovo","country":"North Macedonia","timezone":"Europe/Skopje","lat":42.1322,"lng":21.7144},{"slug":"kumasi","name":"Kumasi","country":"Ghana","timezone":"Africa/Accra","lat":6.6667,"lng":-1.6167},{"slug":"kutaisi","name":"Kutaisi","country":"Georgia","timezone":"Asia/Tbilisi","lat":42.25,"lng":42.7},{"slug":"kwajalein","name":"Kwajalein","country":"Marshall Islands","timezone":"Pacific/Majuro","lat":7.0833,"lng":171.3833},{"slug":"kyiv","name":"Kyiv","country":"Ukraine","timezone":"Europe/Kyiv","lat":50.45,"lng":30.5233},{"slug":"la-ceiba","name":"La Ceiba","country":"Honduras","timezone":"America/Tegucigalpa","lat":15.7792,"lng":-86.7931},{"slug":"la-laguna","name":"La Laguna","country":"Spain","timezone":"Atlantic/Canary","lat":28.4853,"lng":-16.3167},{"slug":"la-paz","name":"La Paz","country":"Bolivia","timezone":"America/La_Paz","lat":-16.5,"lng":-68.15},{"slug":"laayoune","name":"Laayoune","country":"Western Sahara","timezone":"Africa/El_Aaiun","lat":27.1536,"lng":-13.2033},{"slug":"labattoir","name":"Labattoir","country":"Mayotte","timezone":"Indian/Mayotte","lat":-12.7794,"lng":45.2272},{"slug":"lae","name":"Lae","country":"Papua New Guinea","timezone":"Pacific/Port_Moresby","lat":-6.7303,"lng":147.0008},{"slug":"lagos","name":"Lagos","country":"Nigeria","timezone":"Africa/Lagos","lat":6.455,"lng":3.3841},{"slug":"lahore","name":"Lahore","country":"Pakistan","timezone":"Asia/Karachi","lat":31.5497,"lng":74.3436},{"slug":"lankaran","name":"Lankaran","country":"Azerbaijan","timezone":"Asia/Baku","lat":38.7536,"lng":48.8511},{"slug":"larnaca","name":"Larnaca","country":"Cyprus","timezone":"Asia/Nicosia","lat":34.9167,"lng":33.6333},{"slug":"las-palmas-de-gran-canaria","name":"Las Palmas de Gran Canaria","country":"Spain","timezone":"Atlantic/Canary","lat":28.4853,"lng":-16.3167},{"slug":"las-piedras","name":"Las Piedras","country":"Uruguay","timezone":"America/Montevideo","lat":-34.7167,"lng":-56.2167},{"slug":"latakia","name":"Latakia","country":"Syria","timezone":"Asia/Damascus","lat":35.5167,"lng":35.7833},{"slug":"lausanne","name":"Lausanne","country":"Switzerland","timezone":"Europe/Zurich","lat":46.5198,"lng":6.6335},{"slug":"lautoka","name":"Lautoka","country":"Fiji","timezone":"Pacific/Fiji","lat":-17.6242,"lng":177.4528},{"slug":"le-gosier","name":"Le Gosier","country":"Guadeloupe","timezone":"America/Guadeloupe","lat":16.21,"lng":-61.49},{"slug":"le-lamentin","name":"Le Lamentin","country":"Martinique","timezone":"America/Martinique","lat":14.6,"lng":-61.0667},{"slug":"le-robert","name":"Le Robert","country":"Martinique","timezone":"America/Martinique","lat":14.6,"lng":-61.0667},{"slug":"le-tampon","name":"Le Tampon","country":"Reunion","timezone":"Indian/Reunion","lat":-20.8789,"lng":55.4481},{"slug":"leon","name":"León","country":"Nicaragua","timezone":"America/Managua","lat":12.4344,"lng":-86.8775},{"slug":"les-abymes","name":"Les Abymes","country":"Guadeloupe","timezone":"America/Guadeloupe","lat":16.27,"lng":-61.5},{"slug":"les-escaldes","name":"les Escaldes","country":"Andorra","timezone":"Europe/Andorra","lat":42.5,"lng":1.5},{"slug":"lethbridge","name":"Lethbridge","country":"Canada","timezone":"America/Edmonton","lat":49.6942,"lng":-112.8328},{"slug":"libreville","name":"Libreville","country":"Gabon","timezone":"Africa/Libreville","lat":0.3903,"lng":9.4542},{"slug":"liepaja","name":"Liepāja","country":"Latvia","timezone":"Europe/Riga","lat":56.5117,"lng":21.0139},{"slug":"likisa","name":"Likisá","country":"Timor Leste","timezone":"Asia/Dili","lat":-8.5536,"lng":125.5783},{"slug":"lilongwe","name":"Lilongwe","country":"Malawi","timezone":"Africa/Blantyre","lat":-13.9833,"lng":33.7833},{"slug":"lima","name":"Lima","country":"Peru","timezone":"America/Lima","lat":-12.06,"lng":-77.0375},{"slug":"limassol","name":"Limassol","country":"Cyprus","timezone":"Asia/Nicosia","lat":34.6747,"lng":33.0442},{"slug":"limerick","name":"Limerick","country":"Ireland","timezone":"Europe/Dublin","lat":52.6653,"lng":-8.6238},{"slug":"limon","name":"Limón","country":"Costa Rica","timezone":"America/Costa_Rica","lat":37.3012,"lng":-121.848},{"slug":"linden","name":"Linden","country":"Guyana","timezone":"America/Guyana","lat":6,"lng":-58.3},{"slug":"linz","name":"Linz","country":"Austria","timezone":"Europe/Vienna","lat":48.3058,"lng":14.2864},{"slug":"lisbon","name":"Lisbon","country":"Portugal","timezone":"Europe/Lisbon","lat":38.7253,"lng":-9.15},{"slug":"ljubljana","name":"Ljubljana","country":"Slovenia","timezone":"Europe/Ljubljana","lat":46.0514,"lng":14.5061},{"slug":"lobamba","name":"Lobamba","country":"Eswatini","timezone":"Africa/Mbabane","lat":-26.4465,"lng":31.2064},{"slug":"logan-city","name":"Logan City","country":"Australia","timezone":"Australia/Brisbane","lat":41.7399,"lng":-111.8422},{"slug":"lome","name":"Lomé","country":"Togo","timezone":"Africa/Lome","lat":6.1319,"lng":1.2228},{"slug":"london","name":"London","country":"United Kingdom","timezone":"Europe/London","lat":51.5072,"lng":-0.1275},{"slug":"longyearbyen","name":"Longyearbyen","country":"Svalbard and Jan Mayen","timezone":"Arctic/Longyearbyen","lat":78.2167,"lng":15.6333},{"slug":"lord-howe","name":"Lord Howe","country":"Australia","timezone":"Australia/Lord_Howe","lat":-31.56,"lng":159.08},{"slug":"los-angeles","name":"Los Angeles","country":"United States","timezone":"America/Los_Angeles","lat":34.1141,"lng":-118.4068},{"slug":"luanda","name":"Luanda","country":"Angola","timezone":"Africa/Luanda","lat":-8.8383,"lng":13.2344},{"slug":"lubango","name":"Lubango","country":"Angola","timezone":"Africa/Luanda","lat":-14.9167,"lng":13.5},{"slug":"lubumbashi","name":"Lubumbashi","country":"Democratic Republic of the Congo","timezone":"Africa/Lubumbashi","lat":-11.6647,"lng":27.4794},{"slug":"lucaya","name":"Lucaya","country":"Bahamas","timezone":"America/Nassau","lat":25.0781,"lng":-77.3386},{"slug":"luhuan","name":"Luhuan","country":"Macao","timezone":"Asia/Macau","lat":22.2006,"lng":113.5461},{"slug":"lusaka","name":"Lusaka","country":"Zambia","timezone":"Africa/Lusaka","lat":-15.4167,"lng":28.2833},{"slug":"luxembourg","name":"Luxembourg","country":"Luxembourg","timezone":"Europe/Luxembourg","lat":49.6117,"lng":6.1319},{"slug":"lyon","name":"Lyon","country":"France","timezone":"Europe/Paris","lat":45.76,"lng":4.84},{"slug":"macau","name":"Macau","country":"Macao","timezone":"Asia/Macau","lat":22.2006,"lng":113.5461},{"slug":"madinah","name":"Madinah","country":"Saudi Arabia","timezone":"Asia/Riyadh","lat":21.5433,"lng":39.1728},{"slug":"madinat-hamad","name":"Madīnat Ḩamad","country":"Bahrain","timezone":"Asia/Bahrain","lat":26.1128,"lng":50.5139},{"slug":"madrid","name":"Madrid","country":"Spain","timezone":"Europe/Madrid","lat":40.4169,"lng":-3.7033},{"slug":"mafeteng","name":"Mafeteng","country":"Lesotho","timezone":"Africa/Maseru","lat":-29.8167,"lng":27.25},{"slug":"magadan","name":"Magadan","country":"Russia","timezone":"Asia/Sakhalin","lat":59.5667,"lng":150.8},{"slug":"mahajanga","name":"Mahajanga","country":"Madagascar","timezone":"Indian/Antananarivo","lat":-15.7167,"lng":46.3167},{"slug":"maharagama","name":"Maharagama","country":"Sri Lanka","timezone":"Asia/Colombo","lat":6.8494,"lng":79.9236},{"slug":"maipu","name":"Maipú","country":"Chile","timezone":"America/Santiago","lat":-33.5167,"lng":-70.7667},{"slug":"majuro","name":"Majuro","country":"Marshall Islands","timezone":"Pacific/Majuro","lat":7.0833,"lng":171.3833},{"slug":"makakilo-kapolei-honokai-hale","name":"Makakilo / Kapolei / Honokai Hale","country":"United States","timezone":"Pacific/Honolulu","lat":21.3591,"lng":-158.0813},{"slug":"makassar","name":"Makassar","country":"Indonesia","timezone":"Asia/Makassar","lat":-5.1619,"lng":119.4362},{"slug":"makkah","name":"Makkah","country":"Saudi Arabia","timezone":"Asia/Riyadh","lat":21.5433,"lng":39.1728},{"slug":"malabo","name":"Malabo","country":"Equatorial Guinea","timezone":"Africa/Malabo","lat":3.75,"lng":8.7833},{"slug":"malakal","name":"Malakal","country":"South Sudan","timezone":"Africa/Juba","lat":9.55,"lng":31.65},{"slug":"malatia-sebastia","name":"Malatia-Sebastia","country":"Armenia","timezone":"Asia/Yerevan","lat":40.1814,"lng":44.5144},{"slug":"male","name":"Male","country":"Maldives","timezone":"Indian/Maldives","lat":4.1753,"lng":73.5089},{"slug":"maliana","name":"Maliana","country":"Timor Leste","timezone":"Asia/Dili","lat":-8.9917,"lng":125.2197},{"slug":"malmo","name":"Malmö","country":"Sweden","timezone":"Europe/Stockholm","lat":55.6058,"lng":13.0358},{"slug":"mamoudzou","name":"Mamoudzou","country":"Mayotte","timezone":"Indian/Mayotte","lat":-12.7794,"lng":45.2272},{"slug":"managua","name":"Managua","country":"Nicaragua","timezone":"America/Managua","lat":12.1544,"lng":-86.2738},{"slug":"manama","name":"Manama","country":"Bahrain","timezone":"Asia/Bahrain","lat":26.225,"lng":50.5775},{"slug":"manaus","name":"Manaus","country":"Brazil","timezone":"America/Manaus","lat":-3.1,"lng":-60.0167},{"slug":"manchester","name":"Manchester","country":"United Kingdom","timezone":"Europe/London","lat":53.4794,"lng":-2.2453},{"slug":"mandalay","name":"Mandalay","country":"Myanmar","timezone":"Asia/Yangon","lat":21.9831,"lng":96.0844},{"slug":"mandurah","name":"Mandurah","country":"Australia","timezone":"Australia/Perth","lat":-32.5289,"lng":115.7231},{"slug":"manila","name":"Manila","country":"Philippines","timezone":"Asia/Manila","lat":14.5958,"lng":120.9772},{"slug":"manukau-city","name":"Manukau City","country":"New Zealand","timezone":"Pacific/Auckland","lat":-37,"lng":174.885},{"slug":"manzini","name":"Manzini","country":"Eswatini","timezone":"Africa/Mbabane","lat":-26.4833,"lng":31.3667},{"slug":"maputo","name":"Maputo","country":"Mozambique","timezone":"Africa/Maputo","lat":-25.9667,"lng":32.5833},{"slug":"maputsoe","name":"Maputsoe","country":"Lesotho","timezone":"Africa/Maseru","lat":-28.895,"lng":27.907},{"slug":"mar-del-plata","name":"Mar del Plata","country":"Argentina","timezone":"America/Argentina/Buenos_Aires","lat":-38,"lng":-57.55},{"slug":"maracaibo","name":"Maracaibo","country":"Venezuela","timezone":"America/Caracas","lat":10.6333,"lng":-71.6333},{"slug":"maradi","name":"Maradi","country":"Niger","timezone":"Africa/Niamey","lat":13.4833,"lng":7.1},{"slug":"maribor","name":"Maribor","country":"Slovenia","timezone":"Europe/Ljubljana","lat":46.5575,"lng":15.6456},{"slug":"mariehamn","name":"Mariehamn","country":"Aland Islands","timezone":"Europe/Mariehamn","lat":60.1,"lng":19.9333},{"slug":"marigot","name":"Marigot","country":"Saint Martin","timezone":"America/Marigot","lat":18.0706,"lng":-63.0847},{"slug":"marquesas","name":"Marquesas","country":"French Polynesia","timezone":"Pacific/Marquesas","lat":-9.77,"lng":-139.01},{"slug":"marseille","name":"Marseille","country":"France","timezone":"Europe/Paris","lat":43.2964,"lng":5.37},{"slug":"mary","name":"Mary","country":"Turkmenistan","timezone":"Asia/Ashgabat","lat":37.6,"lng":61.8333},{"slug":"masaya","name":"Masaya","country":"Nicaragua","timezone":"America/Managua","lat":11.9764,"lng":-86.0875},{"slug":"maseru","name":"Maseru","country":"Lesotho","timezone":"Africa/Maseru","lat":-29.31,"lng":27.48},{"slug":"mashhad","name":"Mashhad","country":"Iran","timezone":"Asia/Tehran","lat":36.3,"lng":59.6},{"slug":"masina","name":"Masina","country":"Democratic Republic of the Congo","timezone":"Africa/Kinshasa","lat":-4.325,"lng":15.3222},{"slug":"massawa","name":"Massawa","country":"Eritrea","timezone":"Africa/Asmara","lat":15.6097,"lng":39.45},{"slug":"mata-utu","name":"Mata-Utu","country":"Wallis and Futuna","timezone":"Pacific/Wallis","lat":-13.2825,"lng":-176.1736},{"slug":"matola","name":"Matola","country":"Mozambique","timezone":"Africa/Maputo","lat":-25.9667,"lng":32.4667},{"slug":"matoury","name":"Matoury","country":"French Guiana","timezone":"America/Cayenne","lat":4.933,"lng":-52.33},{"slug":"maun","name":"Maun","country":"Botswana","timezone":"Africa/Gaborone","lat":-19.9833,"lng":23.4167},{"slug":"mawson","name":"Mawson","country":"Antarctica","timezone":"Antarctica/Mawson","lat":-67.6,"lng":62.87},{"slug":"mazar-e-sharif","name":"Mazār-e Sharīf","country":"Afghanistan","timezone":"Asia/Kabul","lat":36.7,"lng":67.1167},{"slug":"mazatlan","name":"Mazatlán","country":"Mexico","timezone":"America/Hermosillo","lat":23.2167,"lng":-106.4167},{"slug":"mbabane","name":"Mbabane","country":"Eswatini","timezone":"Africa/Mbabane","lat":-26.3208,"lng":31.1617},{"slug":"mbandaka","name":"Mbandaka","country":"Democratic Republic of the Congo","timezone":"Africa/Kinshasa","lat":0.0478,"lng":18.2558},{"slug":"mbuji-mayi","name":"Mbuji-Mayi","country":"Democratic Republic of the Congo","timezone":"Africa/Lubumbashi","lat":-6.15,"lng":23.6},{"slug":"mcmurdo","name":"McMurdo","country":"Antarctica","timezone":"Antarctica/McMurdo","lat":-77.85,"lng":166.67},{"slug":"medellin","name":"Medellín","country":"Colombia","timezone":"America/Bogota","lat":6.2308,"lng":-75.5906},{"slug":"mek-ele","name":"Mek'ele","country":"Ethiopia","timezone":"Africa/Addis_Ababa","lat":9.03,"lng":38.74},{"slug":"melbourne","name":"Melbourne","country":"Australia","timezone":"Australia/Sydney","lat":-37.8142,"lng":144.9631},{"slug":"mentiri","name":"Mentiri","country":"Brunei","timezone":"Asia/Brunei","lat":4.8903,"lng":114.9422},{"slug":"mesa","name":"Mesa","country":"United States","timezone":"America/Phoenix","lat":33.4015,"lng":-111.7178},{"slug":"mexicali","name":"Mexicali","country":"Mexico","timezone":"America/Tijuana","lat":32.6633,"lng":-115.4678},{"slug":"mexico-city","name":"Mexico City","country":"Mexico","timezone":"America/Mexico_City","lat":19.4333,"lng":-99.1333},{"slug":"midway","name":"Midway","country":"United States Minor Outlying Islands","timezone":"Pacific/Midway","lat":30.4169,"lng":-87.0229},{"slug":"milan","name":"Milan","country":"Italy","timezone":"Europe/Rome","lat":45.4669,"lng":9.19},{"slug":"mindelo","name":"Mindelo","country":"Cabo Verde","timezone":"Atlantic/Cape_Verde","lat":16.886,"lng":-24.988},{"slug":"minsk","name":"Minsk","country":"Belarus","timezone":"Europe/Minsk","lat":53.9,"lng":27.5667},{"slug":"miskolc","name":"Miskolc","country":"Hungary","timezone":"Europe/Budapest","lat":48.0833,"lng":20.6667},{"slug":"misratah","name":"Misratah","country":"Libya","timezone":"Africa/Tripoli","lat":32.3775,"lng":15.092},{"slug":"mississauga","name":"Mississauga","country":"Canada","timezone":"America/Toronto","lat":43.6,"lng":-79.65},{"slug":"mixco","name":"Mixco","country":"Guatemala","timezone":"America/Guatemala","lat":14.6338,"lng":-90.6146},{"slug":"mogadishu","name":"Mogadishu","country":"Somalia","timezone":"Africa/Mogadishu","lat":2.0392,"lng":45.3419},{"slug":"mogoditshane","name":"Mogoditshane","country":"Botswana","timezone":"Africa/Gaborone","lat":-24.6333,"lng":25.8667},{"slug":"mohale-s-hoek","name":"Mohale's Hoek","country":"Lesotho","timezone":"Africa/Maseru","lat":-30.15,"lng":27.4667},{"slug":"mombasa","name":"Mombasa","country":"Kenya","timezone":"Africa/Nairobi","lat":-4.05,"lng":39.6667},{"slug":"mon-repos","name":"Mon Repos","country":"Trinidad and Tobago","timezone":"America/Port_of_Spain","lat":10.5167,"lng":-61.4},{"slug":"monaco","name":"Monaco","country":"Monaco","timezone":"Europe/Monaco","lat":43.7333,"lng":7.4167},{"slug":"moncton","name":"Moncton","country":"Canada","timezone":"America/Halifax","lat":46.1328,"lng":-64.7714},{"slug":"monrovia","name":"Monrovia","country":"Liberia","timezone":"Africa/Monrovia","lat":6.3133,"lng":-10.8014},{"slug":"mont-dore","name":"Mont-Dore","country":"New Caledonia","timezone":"Pacific/Noumea","lat":-22.2157,"lng":166.4665},{"slug":"monte-carlo","name":"Monte-Carlo","country":"Monaco","timezone":"Europe/Monaco","lat":43.7333,"lng":7.4167},{"slug":"montevideo","name":"Montevideo","country":"Uruguay","timezone":"America/Montevideo","lat":-34.8836,"lng":-56.1819},{"slug":"montreal","name":"Montréal","country":"Canada","timezone":"America/Toronto","lat":45.5089,"lng":-73.5617},{"slug":"moose-jaw","name":"Moose Jaw","country":"Canada","timezone":"America/Regina","lat":50.3933,"lng":-105.5519},{"slug":"moroni","name":"Moroni","country":"Comoros","timezone":"Indian/Comoro","lat":-11.699,"lng":43.256},{"slug":"morphett-vale","name":"Morphett Vale","country":"Australia","timezone":"Australia/Adelaide","lat":-34.9275,"lng":138.6},{"slug":"moscow","name":"Moscow","country":"Russia","timezone":"Europe/Moscow","lat":55.7558,"lng":37.6178},{"slug":"mosta","name":"Mosta","country":"Malta","timezone":"Europe/Malta","lat":35.9097,"lng":14.4261},{"slug":"mosul","name":"Mosul","country":"Iraq","timezone":"Asia/Baghdad","lat":36.34,"lng":43.13},{"slug":"moundou","name":"Moundou","country":"Chad","timezone":"Africa/Ndjamena","lat":8.5667,"lng":16.0833},{"slug":"mount-gambier","name":"Mount Gambier","country":"Australia","timezone":"Australia/Adelaide","lat":-37.8294,"lng":140.7828},{"slug":"mount-hagen","name":"Mount Hagen","country":"Papua New Guinea","timezone":"Pacific/Port_Moresby","lat":-5.86,"lng":144.24},{"slug":"mount-pearl","name":"Mount Pearl","country":"Canada","timezone":"America/St_Johns","lat":47.4817,"lng":-52.7971},{"slug":"moutsamoudou","name":"Moutsamoudou","country":"Comoros","timezone":"Indian/Comoro","lat":-11.699,"lng":43.256},{"slug":"mueang-nonthaburi","name":"Mueang Nonthaburi","country":"Thailand","timezone":"Asia/Bangkok","lat":13.7525,"lng":100.4942},{"slug":"mumbai","name":"Mumbai","country":"India","timezone":"Asia/Kolkata","lat":19.0761,"lng":72.8775},{"slug":"munich","name":"Munich","country":"Germany","timezone":"Europe/Berlin","lat":48.1375,"lng":11.575},{"slug":"musanze","name":"Musanze","country":"Rwanda","timezone":"Africa/Kigali","lat":-1.9536,"lng":30.0606},{"slug":"muscat","name":"Muscat","country":"Oman","timezone":"Asia/Muscat","lat":23.6139,"lng":58.5922},{"slug":"mutare","name":"Mutare","country":"Zimbabwe","timezone":"Africa/Harare","lat":-18.9667,"lng":32.6333},{"slug":"mwanza","name":"Mwanza","country":"Tanzania","timezone":"Africa/Dar_es_Salaam","lat":-2.5167,"lng":32.9},{"slug":"mzuzu","name":"Mzuzu","country":"Malawi","timezone":"Africa/Blantyre","lat":-11.4581,"lng":34.0151},{"slug":"n-djamena","name":"N'Djamena","country":"Chad","timezone":"Africa/Ndjamena","lat":12.11,"lng":15.05},{"slug":"nadi","name":"Nadi","country":"Fiji","timezone":"Pacific/Fiji","lat":-17.8,"lng":177.4167},{"slug":"nagoya","name":"Nagoya","country":"Japan","timezone":"Asia/Tokyo","lat":35.1833,"lng":136.9},{"slug":"nairobi","name":"Nairobi","country":"Kenya","timezone":"Africa/Nairobi","lat":-1.2864,"lng":36.8172},{"slug":"nakuru","name":"Nakuru","country":"Kenya","timezone":"Africa/Nairobi","lat":-0.3,"lng":36.0667},{"slug":"namangan","name":"Namangan","country":"Uzbekistan","timezone":"Asia/Tashkent","lat":41.0011,"lng":71.6683},{"slug":"namp-o","name":"Namp’o","country":"North Korea","timezone":"Asia/Pyongyang","lat":39.0194,"lng":125.7381},{"slug":"nampula","name":"Nampula","country":"Mozambique","timezone":"Africa/Maputo","lat":-15.1167,"lng":39.2667},{"slug":"nansana","name":"Nansana","country":"Uganda","timezone":"Africa/Kampala","lat":0.3639,"lng":32.5286},{"slug":"naples","name":"Naples","country":"Italy","timezone":"Europe/Rome","lat":40.8333,"lng":14.25},{"slug":"narva","name":"Narva","country":"Estonia","timezone":"Europe/Tallinn","lat":59.3758,"lng":28.1961},{"slug":"nasinu","name":"Nasinu","country":"Fiji","timezone":"Pacific/Fiji","lat":-18.1416,"lng":178.4419},{"slug":"nassau","name":"Nassau","country":"Bahamas","timezone":"America/Nassau","lat":25.0781,"lng":-77.3386},{"slug":"nay-pyi-taw","name":"Nay Pyi Taw","country":"Myanmar","timezone":"Asia/Yangon","lat":19.7475,"lng":96.115},{"slug":"ndola","name":"Ndola","country":"Zambia","timezone":"Africa/Lusaka","lat":-12.9667,"lng":28.6333},{"slug":"new-amsterdam","name":"New Amsterdam","country":"Guyana","timezone":"America/Guyana","lat":6.25,"lng":-57.5167},{"slug":"new-kingston","name":"New Kingston","country":"Jamaica","timezone":"America/Jamaica","lat":17.9714,"lng":-76.7931},{"slug":"new-taipei-city","name":"New Taipei City","country":"Taiwan","timezone":"Asia/Taipei","lat":25.0375,"lng":121.5625},{"slug":"new-territories","name":"New Territories","country":"Hong Kong","timezone":"Asia/Hong_Kong","lat":22.3,"lng":114.2},{"slug":"new-york-city","name":"New York City","country":"United States","timezone":"America/New_York","lat":40.6943,"lng":-73.9249},{"slug":"newcastle","name":"Newcastle","country":"Australia","timezone":"Australia/Sydney","lat":-32.9167,"lng":151.75},{"slug":"ngerulmud","name":"Ngerulmud","country":"Palau","timezone":"Pacific/Palau","lat":7.5006,"lng":134.6242},{"slug":"nggosi","name":"Nggosi","country":"Solomon Islands","timezone":"Pacific/Guadalcanal","lat":-9.4319,"lng":159.9556},{"slug":"ngozi","name":"Ngozi","country":"Burundi","timezone":"Africa/Bujumbura","lat":-2.9083,"lng":29.8269},{"slug":"niamey","name":"Niamey","country":"Niger","timezone":"Africa/Niamey","lat":13.515,"lng":2.1175},{"slug":"nicosia","name":"Nicosia","country":"Cyprus","timezone":"Asia/Nicosia","lat":35.1725,"lng":33.365},{"slug":"niksic","name":"Nikšić","country":"Montenegro","timezone":"Europe/Podgorica","lat":42.7778,"lng":18.95},{"slug":"nis","name":"Niš","country":"Serbia","timezone":"Europe/Belgrade","lat":43.3192,"lng":21.8961},{"slug":"nitra","name":"Nitra","country":"Slovakia","timezone":"Europe/Bratislava","lat":48.3069,"lng":18.0864},{"slug":"nizhniy-novgorod","name":"Nizhniy Novgorod","country":"Russia","timezone":"Europe/Moscow","lat":56.3269,"lng":44.0075},{"slug":"nkayi","name":"Nkayi","country":"Republic of the Congo","timezone":"Africa/Brazzaville","lat":-4.2694,"lng":15.2714},{"slug":"noord","name":"Noord","country":"Aruba","timezone":"America/Aruba","lat":12.5186,"lng":-70.0358},{"slug":"nor-nork","name":"Nor Nork","country":"Armenia","timezone":"Asia/Yerevan","lat":40.1814,"lng":44.5144},{"slug":"noronha","name":"Noronha","country":"Brazil","timezone":"America/Noronha","lat":-3.85,"lng":-32.42},{"slug":"nouadhibou","name":"Nouadhibou","country":"Mauritania","timezone":"Africa/Nouakchott","lat":20.9333,"lng":-17.0333},{"slug":"nouakchott","name":"Nouakchott","country":"Mauritania","timezone":"Africa/Nouakchott","lat":18.0858,"lng":-15.9785},{"slug":"noumea","name":"Nouméa","country":"New Caledonia","timezone":"Pacific/Noumea","lat":-22.2758,"lng":166.458},{"slug":"novi-sad","name":"Novi Sad","country":"Serbia","timezone":"Europe/Belgrade","lat":45.2542,"lng":19.8425},{"slug":"novosibirsk","name":"Novosibirsk","country":"Russia","timezone":"Asia/Novosibirsk","lat":55.0333,"lng":82.9167},{"slug":"nuevo-laredo","name":"Nuevo Laredo","country":"Mexico","timezone":"America/Matamoros","lat":27.4861,"lng":-99.5069},{"slug":"nuku-alofa","name":"Nuku‘alofa","country":"Tonga","timezone":"Pacific/Tongatapu","lat":-21.21,"lng":-175.15},{"slug":"nuuk","name":"Nuuk","country":"Greenland","timezone":"America/Nuuk","lat":64.1814,"lng":-51.6942},{"slug":"nyagatare","name":"Nyagatare","country":"Rwanda","timezone":"Africa/Kigali","lat":-1.9536,"lng":30.0606},{"slug":"nyala","name":"Nyala","country":"Sudan","timezone":"Africa/Khartoum","lat":12.05,"lng":24.8833},{"slug":"nzerekore","name":"Nzérékoré","country":"Guinea","timezone":"Africa/Conakry","lat":9.5092,"lng":-13.7122},{"slug":"odense","name":"Odense","country":"Denmark","timezone":"Europe/Copenhagen","lat":55.3958,"lng":10.3886},{"slug":"odesa","name":"Odesa","country":"Ukraine","timezone":"Europe/Kyiv","lat":46.4775,"lng":30.7326},{"slug":"odz","name":"Łódź","country":"Poland","timezone":"Europe/Warsaw","lat":52.23,"lng":21.0111},{"slug":"olgii","name":"Ölgii","country":"Mongolia","timezone":"Asia/Hovd","lat":49.9833,"lng":92.0667},{"slug":"omdurman","name":"Omdurman","country":"Sudan","timezone":"Africa/Khartoum","lat":15.65,"lng":32.4833},{"slug":"omsk","name":"Omsk","country":"Russia","timezone":"Asia/Omsk","lat":54.9667,"lng":73.3833},{"slug":"oran","name":"Oran","country":"Algeria","timezone":"Africa/Algiers","lat":35.6969,"lng":-0.6331},{"slug":"orange-walk","name":"Orange Walk","country":"Belize","timezone":"America/Belize","lat":18.075,"lng":-88.5583},{"slug":"oranjestad","name":"Oranjestad","country":"Aruba","timezone":"America/Aruba","lat":12.5186,"lng":-70.0358},{"slug":"osaka","name":"Osaka","country":"Japan","timezone":"Asia/Tokyo","lat":34.6939,"lng":135.5022},{"slug":"osh","name":"Osh","country":"Kyrgyzstan","timezone":"Asia/Bishkek","lat":40.5333,"lng":72.7833},{"slug":"osijek","name":"Osijek","country":"Croatia","timezone":"Europe/Zagreb","lat":45.5556,"lng":18.6944},{"slug":"oslo","name":"Oslo","country":"Norway","timezone":"Europe/Oslo","lat":59.9133,"lng":10.7389},{"slug":"ostrava","name":"Ostrava","country":"Czechia","timezone":"Europe/Prague","lat":49.8356,"lng":18.2925},{"slug":"ottawa","name":"Ottawa","country":"Canada","timezone":"America/Toronto","lat":45.4247,"lng":-75.695},{"slug":"ouagadougou","name":"Ouagadougou","country":"Burkina Faso","timezone":"Africa/Ouagadougou","lat":12.3686,"lng":-1.5275},{"slug":"owendo","name":"Owendo","country":"Gabon","timezone":"Africa/Libreville","lat":0.2833,"lng":9.5},{"slug":"pago-pago","name":"Pago Pago","country":"American Samoa","timezone":"Pacific/Pago_Pago","lat":-14.274,"lng":-170.7046},{"slug":"pakse","name":"Pakse","country":"Laos","timezone":"Asia/Vientiane","lat":17.9667,"lng":102.6},{"slug":"palikir","name":"Palikir","country":"Micronesia","timezone":"Pacific/Kosrae","lat":6.9178,"lng":158.185},{"slug":"palmer","name":"Palmer","country":"Antarctica","timezone":"Antarctica/Palmer","lat":40.7007,"lng":-75.2628},{"slug":"palmerston","name":"Palmerston","country":"Australia","timezone":"Australia/Darwin","lat":53.35,"lng":-6.379},{"slug":"panama","name":"Panamá","country":"Panama","timezone":"America/Panama","lat":9.033,"lng":-79.5},{"slug":"panatina","name":"Panatina","country":"Solomon Islands","timezone":"Pacific/Guadalcanal","lat":-9.4319,"lng":159.9556},{"slug":"papeete","name":"Papeete","country":"French Polynesia","timezone":"Pacific/Tahiti","lat":-17.5334,"lng":-149.5667},{"slug":"paradise","name":"Paradise","country":"Canada","timezone":"America/St_Johns","lat":47.5333,"lng":-52.8667},{"slug":"parakou","name":"Parakou","country":"Benin","timezone":"Africa/Porto-Novo","lat":9.35,"lng":2.6167},{"slug":"paramaribo","name":"Paramaribo","country":"Suriname","timezone":"America/Paramaribo","lat":5.8522,"lng":-55.2039},{"slug":"paris","name":"Paris","country":"France","timezone":"Europe/Paris","lat":48.8567,"lng":2.3522},{"slug":"parnu","name":"Pärnu","country":"Estonia","timezone":"Europe/Tallinn","lat":58.3833,"lng":24.5},{"slug":"patan","name":"Pātan","country":"Nepal","timezone":"Asia/Kathmandu","lat":23.85,"lng":72.1167},{"slug":"patra","name":"Pátra","country":"Greece","timezone":"Europe/Athens","lat":38.25,"lng":21.7333},{"slug":"paysandu","name":"Paysandú","country":"Uruguay","timezone":"America/Montevideo","lat":-32.3214,"lng":-58.0756},{"slug":"pearl-city","name":"Pearl City","country":"United States","timezone":"Pacific/Honolulu","lat":21.4031,"lng":-157.9566},{"slug":"perm","name":"Perm","country":"Russia","timezone":"Asia/Yekaterinburg","lat":58.0139,"lng":56.2489},{"slug":"perth","name":"Perth","country":"Australia","timezone":"Australia/Perth","lat":-31.9559,"lng":115.8606},{"slug":"peshawar","name":"Peshawar","country":"Pakistan","timezone":"Asia/Karachi","lat":34.0144,"lng":71.5675},{"slug":"petaling-jaya","name":"Petaling Jaya","country":"Malaysia","timezone":"Asia/Kuala_Lumpur","lat":3.0972,"lng":101.6444},{"slug":"petit-bourg","name":"Petit-Bourg","country":"Guadeloupe","timezone":"America/Guadeloupe","lat":16.2,"lng":-61.59},{"slug":"petropavlovsk-kamchatsky","name":"Petropavlovsk-Kamchatsky","country":"Russia","timezone":"Asia/Kamchatka","lat":53.1833,"lng":158.3833},{"slug":"petrzalka","name":"Petržalka","country":"Slovakia","timezone":"Europe/Bratislava","lat":48.1333,"lng":17.1167},{"slug":"philadelphia","name":"Philadelphia","country":"United States","timezone":"America/New_York","lat":40.0077,"lng":-75.1339},{"slug":"philipsburg","name":"Philipsburg","country":"Sint Maarten","timezone":"America/Lower_Princes","lat":18.0237,"lng":-63.0458},{"slug":"phnom-penh","name":"Phnom Penh","country":"Cambodia","timezone":"Asia/Phnom_Penh","lat":11.5694,"lng":104.9211},{"slug":"phoenix","name":"Phoenix","country":"United States","timezone":"America/Phoenix","lat":33.5722,"lng":-112.0892},{"slug":"phuntsholing","name":"Phuntsholing","country":"Bhutan","timezone":"Asia/Thimphu","lat":26.85,"lng":89.3833},{"slug":"pikine","name":"Pikine","country":"Senegal","timezone":"Africa/Dakar","lat":14.75,"lng":-17.4},{"slug":"pilsen","name":"Pilsen","country":"Czechia","timezone":"Europe/Prague","lat":50.0875,"lng":14.4214},{"slug":"piraeus","name":"Piraeus","country":"Greece","timezone":"Europe/Athens","lat":37.943,"lng":23.6469},{"slug":"playa-del-carmen","name":"Playa del Carmen","country":"Mexico","timezone":"America/Cancun","lat":20.6281,"lng":-87.0755},{"slug":"pljevlja","name":"Pljevlja","country":"Montenegro","timezone":"Europe/Podgorica","lat":43.3567,"lng":19.3583},{"slug":"plovdiv","name":"Plovdiv","country":"Bulgaria","timezone":"Europe/Sofia","lat":42.15,"lng":24.75},{"slug":"plymouth","name":"Plymouth","country":"Montserrat","timezone":"America/Montserrat","lat":50.3714,"lng":-4.1422},{"slug":"podgorica","name":"Podgorica","country":"Montenegro","timezone":"Europe/Podgorica","lat":42.4413,"lng":19.2629},{"slug":"pointe-noire","name":"Pointe-Noire","country":"Republic of the Congo","timezone":"Africa/Brazzaville","lat":-4.8,"lng":11.85},{"slug":"pokhara","name":"Pokhara","country":"Nepal","timezone":"Asia/Kathmandu","lat":28.2083,"lng":83.9889},{"slug":"ponce","name":"Ponce","country":"Puerto Rico","timezone":"America/Puerto_Rico","lat":18.0127,"lng":-66.6212},{"slug":"ponta-delgada","name":"Ponta Delgada","country":"Portugal","timezone":"Atlantic/Azores","lat":37.74,"lng":-25.67},{"slug":"popondetta","name":"Popondetta","country":"Papua New Guinea","timezone":"Pacific/Port_Moresby","lat":-8.7656,"lng":148.2347},{"slug":"port-au-prince","name":"Port-au-Prince","country":"Haiti","timezone":"America/Port-au-Prince","lat":18.5333,"lng":-72.3333},{"slug":"port-aux-francais","name":"Port-aux-Français","country":"French Southern Territories","timezone":"Indian/Kerguelen","lat":-49.35,"lng":70.22},{"slug":"port-de-paix","name":"Port-de-Paix","country":"Haiti","timezone":"America/Port-au-Prince","lat":19.95,"lng":-72.8333},{"slug":"port-gentil","name":"Port-Gentil","country":"Gabon","timezone":"Africa/Libreville","lat":-0.7167,"lng":8.7833},{"slug":"port-louis","name":"Port Louis","country":"Mauritius","timezone":"Indian/Mauritius","lat":-20.1644,"lng":57.5042},{"slug":"port-moresby","name":"Port Moresby","country":"Papua New Guinea","timezone":"Pacific/Port_Moresby","lat":-9.4789,"lng":147.1494},{"slug":"port-of-spain","name":"Port of Spain","country":"Trinidad and Tobago","timezone":"America/Port_of_Spain","lat":10.6667,"lng":-61.5167},{"slug":"port-vila","name":"Port-Vila","country":"Vanuatu","timezone":"Pacific/Efate","lat":-17.7333,"lng":168.3167},{"slug":"portmore","name":"Portmore","country":"Jamaica","timezone":"America/Jamaica","lat":17.95,"lng":-76.8799},{"slug":"porto","name":"Porto","country":"Portugal","timezone":"Europe/Lisbon","lat":41.1621,"lng":-8.622},{"slug":"porto-novo","name":"Porto-Novo","country":"Benin","timezone":"Africa/Porto-Novo","lat":6.4972,"lng":2.605},{"slug":"porto-velho","name":"Porto Velho","country":"Brazil","timezone":"America/Manaus","lat":-8.7619,"lng":-63.9039},{"slug":"prague","name":"Prague","country":"Czechia","timezone":"Europe/Prague","lat":50.0875,"lng":14.4214},{"slug":"praia","name":"Praia","country":"Cabo Verde","timezone":"Atlantic/Cape_Verde","lat":14.918,"lng":-23.509},{"slug":"pretoria","name":"Pretoria","country":"South Africa","timezone":"Africa/Johannesburg","lat":-25.7461,"lng":28.1881},{"slug":"prilep","name":"Prilep","country":"North Macedonia","timezone":"Europe/Skopje","lat":41.3464,"lng":21.5542},{"slug":"prince-albert","name":"Prince Albert","country":"Canada","timezone":"America/Regina","lat":53.2,"lng":-105.75},{"slug":"providenciales","name":"Providenciales","country":"Turks and Caicos Islands","timezone":"America/Grand_Turk","lat":21.77,"lng":-72.27},{"slug":"puebla","name":"Puebla","country":"Mexico","timezone":"America/Mexico_City","lat":19.0333,"lng":-98.1833},{"slug":"puente-alto","name":"Puente Alto","country":"Chile","timezone":"America/Santiago","lat":-33.6167,"lng":-70.5667},{"slug":"puerto-aysen","name":"Puerto Aysén","country":"Chile","timezone":"America/Punta_Arenas","lat":-45.4,"lng":-72.6833},{"slug":"puerto-natales","name":"Puerto Natales","country":"Chile","timezone":"America/Punta_Arenas","lat":-51.7333,"lng":-72.5167},{"slug":"punaauia","name":"Punaauia","country":"French Polynesia","timezone":"Pacific/Tahiti","lat":-17.5334,"lng":-149.5667},{"slug":"punakha","name":"Punākha","country":"Bhutan","timezone":"Asia/Thimphu","lat":27.5833,"lng":89.8583},{"slug":"punta-arenas","name":"Punta Arenas","country":"Chile","timezone":"America/Punta_Arenas","lat":-53.1667,"lng":-70.9333},{"slug":"pyongyang","name":"Pyongyang","country":"North Korea","timezone":"Asia/Pyongyang","lat":39.0194,"lng":125.7381},{"slug":"queens","name":"Queens","country":"United States","timezone":"America/New_York","lat":40.7498,"lng":-73.7976},{"slug":"quezon-city","name":"Quezon City","country":"Philippines","timezone":"Asia/Manila","lat":14.63,"lng":121.03},{"slug":"quito","name":"Quito","country":"Ecuador","timezone":"America/Guayaquil","lat":-0.22,"lng":-78.5125},{"slug":"ra-s-bayrut","name":"Ra’s Bayrūt","country":"Lebanon","timezone":"Asia/Beirut","lat":33.8869,"lng":35.5131},{"slug":"rabat","name":"Rabat","country":"Morocco","timezone":"Africa/Casablanca","lat":34.0209,"lng":-6.8416},{"slug":"rainville","name":"Rainville","country":"Suriname","timezone":"America/Paramaribo","lat":5.8522,"lng":-55.2039},{"slug":"red-deer","name":"Red Deer","country":"Canada","timezone":"America/Edmonton","lat":52.2681,"lng":-113.8111},{"slug":"regina","name":"Regina","country":"Canada","timezone":"America/Regina","lat":50.4547,"lng":-104.6067},{"slug":"reykjanesb-r","name":"Reykjanesbær","country":"Iceland","timezone":"Atlantic/Reykjavik","lat":64.1467,"lng":-21.94},{"slug":"reykjavik","name":"Reykjavík","country":"Iceland","timezone":"Atlantic/Reykjavik","lat":64.1467,"lng":-21.94},{"slug":"reynosa","name":"Reynosa","country":"Mexico","timezone":"America/Matamoros","lat":26.0922,"lng":-98.2778},{"slug":"riga","name":"Riga","country":"Latvia","timezone":"Europe/Riga","lat":56.9489,"lng":24.1064},{"slug":"rijeka","name":"Rijeka","country":"Croatia","timezone":"Europe/Zagreb","lat":45.3272,"lng":14.4411},{"slug":"rio-branco","name":"Rio Branco","country":"Brazil","timezone":"America/Rio_Branco","lat":-9.9747,"lng":-67.81},{"slug":"rio-de-janeiro","name":"Rio de Janeiro","country":"Brazil","timezone":"America/Sao_Paulo","lat":-22.9111,"lng":-43.2056},{"slug":"riyadh","name":"Riyadh","country":"Saudi Arabia","timezone":"Asia/Riyadh","lat":24.6333,"lng":46.7167},{"slug":"road-town","name":"Road Town","country":"British Virgin Islands","timezone":"America/Tortola","lat":18.4167,"lng":-64.6167},{"slug":"rome","name":"Rome","country":"Italy","timezone":"Europe/Rome","lat":41.8931,"lng":12.4828},{"slug":"rosario","name":"Rosario","country":"Argentina","timezone":"America/Argentina/Buenos_Aires","lat":-32.9575,"lng":-60.6394},{"slug":"rosarito","name":"Rosarito","country":"Mexico","timezone":"America/Tijuana","lat":32.525,"lng":-117.0333},{"slug":"roseau","name":"Roseau","country":"Dominica","timezone":"America/Dominica","lat":15.3014,"lng":-61.3883},{"slug":"rothera","name":"Rothera","country":"Antarctica","timezone":"Antarctica/Palmer","lat":40.7007,"lng":-75.2628},{"slug":"rotterdam","name":"Rotterdam","country":"The Netherlands","timezone":"Europe/Amsterdam","lat":51.9167,"lng":4.5},{"slug":"rumonge","name":"Rumonge","country":"Burundi","timezone":"Africa/Bujumbura","lat":-3.9667,"lng":29.4333},{"slug":"rundu","name":"Rundu","country":"Namibia","timezone":"Africa/Windhoek","lat":-17.9167,"lng":19.7667},{"slug":"russeifa","name":"Russeifa","country":"Jordan","timezone":"Asia/Amman","lat":31.9497,"lng":35.9328},{"slug":"rustavi","name":"Rustavi","country":"Georgia","timezone":"Asia/Tbilisi","lat":41.5472,"lng":45.0111},{"slug":"saaba","name":"Saaba","country":"Burkina Faso","timezone":"Africa/Ouagadougou","lat":12.3686,"lng":-1.5275},{"slug":"sabah-as-salim","name":"Şabāḩ as Sālim","country":"Kuwait","timezone":"Asia/Kuwait","lat":29.0769,"lng":48.0838},{"slug":"saint-croix","name":"Saint Croix","country":"U.S. Virgin Islands","timezone":"America/St_Thomas","lat":18.342,"lng":-64.9331},{"slug":"saint-denis","name":"Saint-Denis","country":"Reunion","timezone":"Indian/Reunion","lat":-20.8789,"lng":55.4481},{"slug":"saint-george-s","name":"Saint George's","country":"Grenada","timezone":"America/Grenada","lat":12.05,"lng":-61.75},{"slug":"saint-helier","name":"Saint Helier","country":"Jersey","timezone":"Europe/Jersey","lat":49.1858,"lng":-2.11},{"slug":"saint-john-s","name":"Saint John’s","country":"Antigua and Barbuda","timezone":"America/Antigua","lat":17.1167,"lng":-61.85},{"slug":"saint-laurent-du-maroni","name":"Saint-Laurent-du-Maroni","country":"French Guiana","timezone":"America/Cayenne","lat":5.4976,"lng":-54.0325},{"slug":"saint-paul","name":"Saint-Paul","country":"Reunion","timezone":"Indian/Reunion","lat":-20.8789,"lng":55.4481},{"slug":"saint-peter-port","name":"Saint Peter Port","country":"Guernsey","timezone":"Europe/Guernsey","lat":49.45,"lng":-2.54},{"slug":"saint-petersburg","name":"Saint Petersburg","country":"Russia","timezone":"Europe/Moscow","lat":59.95,"lng":30.3167},{"slug":"saint-pierre","name":"Saint-Pierre","country":"Saint Pierre and Miquelon","timezone":"America/Miquelon","lat":46.7811,"lng":-56.1764},{"slug":"sainte-marie","name":"Sainte-Marie","country":"Martinique","timezone":"America/Martinique","lat":46.45,"lng":-71.0333},{"slug":"saipan","name":"Saipan","country":"Northern Mariana Islands","timezone":"Pacific/Saipan","lat":15.19,"lng":145.75},{"slug":"salto","name":"Salto","country":"Uruguay","timezone":"America/Montevideo","lat":-31.3833,"lng":-57.95},{"slug":"salvador","name":"Salvador","country":"Brazil","timezone":"America/Sao_Paulo","lat":-12.9747,"lng":-38.4767},{"slug":"samara","name":"Samara","country":"Russia","timezone":"Europe/Samara","lat":53.2028,"lng":50.1408},{"slug":"samarinda","name":"Samarinda","country":"Indonesia","timezone":"Asia/Makassar","lat":-0.5,"lng":117.1378},{"slug":"samarkand","name":"Samarkand","country":"Uzbekistan","timezone":"Asia/Tashkent","lat":39.6547,"lng":66.9758},{"slug":"samut-prakan","name":"Samut Prakan","country":"Thailand","timezone":"Asia/Bangkok","lat":13.5897,"lng":100.6386},{"slug":"san-antonio","name":"San Antonio","country":"United States","timezone":"America/Chicago","lat":29.4632,"lng":-98.5238},{"slug":"san-diego","name":"San Diego","country":"United States","timezone":"America/Los_Angeles","lat":32.8313,"lng":-117.1222},{"slug":"san-fernando","name":"San Fernando","country":"Trinidad and Tobago","timezone":"America/Port_of_Spain","lat":10.2833,"lng":-61.4667},{"slug":"san-francisco","name":"San Francisco","country":"United States","timezone":"America/Los_Angeles","lat":37.7558,"lng":-122.4449},{"slug":"san-jose","name":"San Jose","country":"United States","timezone":"America/Los_Angeles","lat":37.3012,"lng":-121.848},{"slug":"san-juan","name":"San Juan","country":"Puerto Rico","timezone":"America/Puerto_Rico","lat":18.3985,"lng":-66.061},{"slug":"san-lorenzo","name":"San Lorenzo","country":"Paraguay","timezone":"America/Asuncion","lat":-25.34,"lng":-57.52},{"slug":"san-marino","name":"San Marino","country":"San Marino","timezone":"Europe/San_Marino","lat":43.9346,"lng":12.4473},{"slug":"san-miguel","name":"San Miguel","country":"El Salvador","timezone":"America/El_Salvador","lat":13.4814,"lng":-88.1775},{"slug":"san-miguelito","name":"San Miguelito","country":"Panama","timezone":"America/Panama","lat":9.033,"lng":-79.5},{"slug":"san-nicolas","name":"San Nicolas","country":"Aruba","timezone":"America/Aruba","lat":16.07,"lng":120.7653},{"slug":"san-pawl-il-ba-ar","name":"San Pawl il-Baħar","country":"Malta","timezone":"Europe/Malta","lat":35.8967,"lng":14.4625},{"slug":"san-pedro","name":"San Pedro","country":"Belize","timezone":"America/Belize","lat":17.9214,"lng":-87.9611},{"slug":"san-pedro-sula","name":"San Pedro Sula","country":"Honduras","timezone":"America/Tegucigalpa","lat":15.5,"lng":-88.0333},{"slug":"san-salvador","name":"San Salvador","country":"El Salvador","timezone":"America/El_Salvador","lat":13.6989,"lng":-89.1914},{"slug":"sanaa","name":"Sanaa","country":"Yemen","timezone":"Asia/Aden","lat":15.3483,"lng":44.2064},{"slug":"santa-ana","name":"Santa Ana","country":"El Salvador","timezone":"America/El_Salvador","lat":13.995,"lng":-89.5561},{"slug":"santa-cruz-de-la-sierra","name":"Santa Cruz de la Sierra","country":"Bolivia","timezone":"America/La_Paz","lat":-17.752,"lng":-63.2279},{"slug":"santa-cruz-de-tenerife","name":"Santa Cruz de Tenerife","country":"Spain","timezone":"Atlantic/Canary","lat":17.486,"lng":120.4344},{"slug":"santiago","name":"Santiago","country":"Chile","timezone":"America/Santiago","lat":-33.4372,"lng":-70.6506},{"slug":"santiago-de-cuba","name":"Santiago de Cuba","country":"Cuba","timezone":"America/Havana","lat":20.0217,"lng":-75.8294},{"slug":"santiago-de-los-caballeros","name":"Santiago de los Caballeros","country":"Dominican Republic","timezone":"America/Santo_Domingo","lat":-33.4372,"lng":-70.6506},{"slug":"santo-domingo","name":"Santo Domingo","country":"Dominican Republic","timezone":"America/Santo_Domingo","lat":18.4764,"lng":-69.8933},{"slug":"santo-domingo-de-los-colorados","name":"Santo Domingo de los Colorados","country":"Ecuador","timezone":"America/Guayaquil","lat":-0.2542,"lng":-79.1719},{"slug":"santo-domingo-este","name":"Santo Domingo Este","country":"Dominican Republic","timezone":"America/Santo_Domingo","lat":18.4855,"lng":-69.8734},{"slug":"santo-domingo-oeste","name":"Santo Domingo Oeste","country":"Dominican Republic","timezone":"America/Santo_Domingo","lat":18.4764,"lng":-69.8933},{"slug":"sao-paulo","name":"São Paulo","country":"Brazil","timezone":"America/Sao_Paulo","lat":-23.55,"lng":-46.6333},{"slug":"sao-tome","name":"São Tomé","country":"Sao Tome and Principe","timezone":"Africa/Sao_Tome","lat":0.3361,"lng":6.7306},{"slug":"sarajevo","name":"Sarajevo","country":"Bosnia and Herzegovina","timezone":"Europe/Sarajevo","lat":43.8564,"lng":18.4131},{"slug":"saratov","name":"Saratov","country":"Russia","timezone":"Europe/Samara","lat":51.5333,"lng":46.0167},{"slug":"sarh","name":"Sarh","country":"Chad","timezone":"Africa/Ndjamena","lat":9.15,"lng":18.3833},{"slug":"saskatoon","name":"Saskatoon","country":"Canada","timezone":"America/Regina","lat":52.1333,"lng":-106.6833},{"slug":"savannakhet","name":"Savannakhet","country":"Laos","timezone":"Asia/Vientiane","lat":16.55,"lng":104.75},{"slug":"scoresbysund","name":"Scoresbysund","country":"Greenland","timezone":"America/Nuuk","lat":70.4853,"lng":-21.9667},{"slug":"se","name":"Sé","country":"Macao","timezone":"Asia/Macau","lat":22.2006,"lng":113.5461},{"slug":"sector-3","name":"Sector 3","country":"Romania","timezone":"Europe/Bucharest","lat":44.4325,"lng":26.1039},{"slug":"sector-6","name":"Sector 6","country":"Romania","timezone":"Europe/Bucharest","lat":44.4325,"lng":26.1039},{"slug":"seeb","name":"Seeb","country":"Oman","timezone":"Asia/Muscat","lat":23.6139,"lng":58.5922},{"slug":"segou","name":"Ségou","country":"Mali","timezone":"Africa/Bamako","lat":13.45,"lng":-6.2667},{"slug":"sena-madureira","name":"Sena Madureira","country":"Brazil","timezone":"America/Rio_Branco","lat":-9.0658,"lng":-68.6569},{"slug":"sengkurong","name":"Sengkurong","country":"Brunei","timezone":"Asia/Brunei","lat":4.8903,"lng":114.9422},{"slug":"seoul","name":"Seoul","country":"South Korea","timezone":"Asia/Seoul","lat":37.56,"lng":126.99},{"slug":"serekunda","name":"Serekunda","country":"Gambia","timezone":"Africa/Banjul","lat":13.4333,"lng":-16.6667},{"slug":"sevastopol","name":"Sevastopol","country":"Ukraine","timezone":"Europe/Simferopol","lat":44.605,"lng":33.5225},{"slug":"sfax","name":"Sfax","country":"Tunisia","timezone":"Africa/Tunis","lat":34.74,"lng":10.76},{"slug":"shanghai","name":"Shanghai","country":"China","timezone":"Asia/Shanghai","lat":31.1667,"lng":121.4667},{"slug":"sharjah","name":"Sharjah","country":"United Arab Emirates","timezone":"Asia/Dubai","lat":25.3575,"lng":55.3908},{"slug":"shengavit","name":"Shengavit","country":"Armenia","timezone":"Asia/Yerevan","lat":40.1814,"lng":44.5144},{"slug":"shenzhen","name":"Shenzhen","country":"China","timezone":"Asia/Shanghai","lat":22.535,"lng":114.054},{"slug":"shihezi","name":"Shihezi","country":"China","timezone":"Asia/Urumqi","lat":44.3054,"lng":86.0804},{"slug":"shubra-al-khaymah","name":"Shubrā al Khaymah","country":"Egypt","timezone":"Africa/Cairo","lat":30.1286,"lng":31.2422},{"slug":"shymkent","name":"Shymkent","country":"Kazakhstan","timezone":"Asia/Almaty","lat":42.3167,"lng":69.5958},{"slug":"siauliai","name":"Šiauliai","country":"Lithuania","timezone":"Europe/Vilnius","lat":55.9333,"lng":23.3167},{"slug":"sidon","name":"Sidon","country":"Lebanon","timezone":"Asia/Beirut","lat":33.5606,"lng":35.3758},{"slug":"siem-reap","name":"Siem Reap","country":"Cambodia","timezone":"Asia/Phnom_Penh","lat":13.3622,"lng":103.8597},{"slug":"sikasso","name":"Sikasso","country":"Mali","timezone":"Africa/Bamako","lat":11.3167,"lng":-5.6667},{"slug":"simferopol","name":"Simferopol","country":"Ukraine","timezone":"Europe/Simferopol","lat":44.9484,"lng":34.1},{"slug":"singapore","name":"Singapore","country":"Singapore","timezone":"Asia/Singapore","lat":1.3,"lng":103.8},{"slug":"skopje","name":"Skopje","country":"North Macedonia","timezone":"Europe/Skopje","lat":41.9961,"lng":21.4317},{"slug":"sliema","name":"Sliema","country":"Malta","timezone":"Europe/Malta","lat":35.9122,"lng":14.5042},{"slug":"sofia","name":"Sofia","country":"Bulgaria","timezone":"Europe/Sofia","lat":42.7,"lng":23.33},{"slug":"sokode","name":"Sokodé","country":"Togo","timezone":"Africa/Lome","lat":8.9833,"lng":1.1333},{"slug":"sorong","name":"Sorong","country":"Indonesia","timezone":"Asia/Jayapura","lat":-0.8667,"lng":131.25},{"slug":"sousse","name":"Sousse","country":"Tunisia","timezone":"Africa/Tunis","lat":35.8333,"lng":10.6333},{"slug":"south-dublin","name":"South Dublin","country":"Ireland","timezone":"Europe/Dublin","lat":53.35,"lng":-6.2603},{"slug":"sovetsk","name":"Sovetsk","country":"Russia","timezone":"Europe/Kaliningrad","lat":55.0808,"lng":21.8864},{"slug":"soyapango","name":"Soyapango","country":"El Salvador","timezone":"America/El_Salvador","lat":13.6989,"lng":-89.1914},{"slug":"spanish-town","name":"Spanish Town","country":"Jamaica","timezone":"America/Jamaica","lat":17.9959,"lng":-76.9551},{"slug":"split","name":"Split","country":"Croatia","timezone":"Europe/Zagreb","lat":43.51,"lng":16.44},{"slug":"st-john-s","name":"St. John's","country":"Canada","timezone":"America/St_Johns","lat":47.4817,"lng":-52.7971},{"slug":"stanley","name":"Stanley","country":"Falkland Islands","timezone":"Atlantic/Stanley","lat":-51.7,"lng":-57.85},